[{"datasetid": "us-zip-code-latitude-and-longitude@public", "recordid": "a16e08a3a9844c55704a193e4bb00d255de272d0", "fields": {"city": "Lamont", "zip": "49430", "dst": 1, "geopoint": [43.010337, -85.89754], "longitude": -85.89754, "state": "MI", "latitude": 43.010337, "timezone": -5}, "geometry": {"type": "Point", "coordinates": [-85.89754, 43.010337]}, "record_timestamp": "2018-02-09T11:33:38.603-05:00"},{"datasetid": "us-zip-code-latitude-and-longitude@public", "recordid": "e795869183babfb3693e3881f5cd1b4cc5531092", "fields": {"city": "Zeeland", "zip": "49464", "dst": 1, "geopoint": [42.829252, -85.99621], "longitude": -85.99621, "state": "MI", "latitude": 42.829252, "timezone": -5}, "geometry": {"type": "Point", "coordinates": [-85.99621, 42.829252]}, "record_timestamp": "2018-02-09T11:33:38.603-05:00"},{"datasetid": "us-zip-code-latitude-and-longitude@public", "recordid": "3a0455b5a1fce25441968033f0b253c8c84b4985", "fields": {"city": "Covington", "zip": "49919", "dst": 1, "geopoint": [46.559834, -88.52201], "longitude": -88.52201, "state": "MI", "latitude": 46.559834, "timezone": -5}, "geometry": {"type": "Point", "coordinates": [-88.52201, 46.559834]}, "record_timestamp": "2018-02-09T11:33:38.603-05:00"},{"datasetid": "us-zip-code-latitude-and-longitude@public", "recordid": "2f4dbba3bb089103d2aa8bf3873606993efda388", "fields": {"city": "Detroit", "zip": "48215", "dst": 1, "geopoint": [42.378287, -82.95243], "longitude": -82.95243, "state": "MI", "latitude": 42.378287, "timezone": -5}, "geometry": {"type": "Point", "coordinates": [-82.95243, 42.378287]}, "record_timestamp": "2018-02-09T11:33:38.603-05:00"},{"datasetid": "us-zip-code-latitude-and-longitude@public", "recordid": "1f412264045f9aafb232fad9207b10462e7a3224", "fields": {"city": "Detroit", "zip": "48226", "dst": 1, "geopoint": [42.331821, -83.04888], "longitude": -83.04888, "state": "MI", "latitude": 42.331821, "timezone": -5}, "geometry": {"type": "Point", "coordinates": [-83.04888, 42.331821]}, "record_timestamp": "2018-02-09T11:33:38.603-05:00"},{"datasetid": "us-zip-code-latitude-and-longitude@public", "recordid": "ffc7ef25ca19cc885cf4a7efea679ff62a8f6b6a", "fields": {"city": "Flint", "zip": "48503", "dst": 1, "geopoint": [43.011227, -83.69291], "longitude": -83.69291, "state": "MI", "latitude": 43.011227, "timezone": -5}, "geometry": {"type": "Point", "coordinates": [-83.69291, 43.011227]}, "record_timestamp": "2018-02-09T11:33:38.603-05:00"},{"datasetid": "us-zip-code-latitude-and-longitude@public", "recordid": "57811f06e3458545fafcf9a3e3a2d7effe1e4cae", "fields": {"city": "Lewiston", "zip": "49756", "dst": 1, "geopoint": [44.839929, -84.30787], "longitude": -84.30787, "state": "MI", "latitude": 44.839929, "timezone": -5}, "geometry": {"type": "Point", "coordinates": [-84.30787, 44.839929]}, "record_timestamp": "2018-02-09T11:33:38.603-05:00"},{"datasetid": "us-zip-code-latitude-and-longitude@public", "recordid": "0e7ab7ee260312058142375d84dbac8b06e4a5cc", "fields": {"city": "Comstock", "zip": "49041", "dst": 1, "geopoint": [42.245412, -85.529858], "longitude": -85.529858, "state": "MI", "latitude": 42.245412, "timezone": -5}, "geometry": {"type": "Point", "coordinates": [-85.529858, 42.245412]}, "record_timestamp": "2018-02-09T11:33:38.603-05:00"},{"datasetid": "us-zip-code-latitude-and-longitude@public", "recordid": "526a4c836ae84ddcbc9f9777de25ac9bd4746107", "fields": {"city": "Richland", "zip": "49157", "dst": 1, "geopoint": [44.21551, -85.298079], "longitude": -85.298079, "state": "MI", "latitude": 44.21551, "timezone": -5}, "geometry": {"type": "Point", "coordinates": [-85.298079, 44.21551]}, "record_timestamp": "2018-02-09T11:33:38.603-05:00"},{"datasetid": "us-zip-code-latitude-and-longitude@public", "recordid": "ccac191c7b627982c87e6ab88d477ce46adc71e8", "fields": {"city": "New Boston", "zip": "48164", "dst": 1, "geopoint": [42.128068999999996, -83.38785], "longitude": -83.38785, "state": "MI", "latitude": 42.128068999999996, "timezone": -5}, "geometry": {"type": "Point", "coordinates": [-83.38785, 42.128068999999996]}, "record_timestamp": "2018-02-09T11:33:38.603-05:00"},{"datasetid": "us-zip-code-latitude-and-longitude@public", "recordid": "a117c6c755296b6e8e1ec25fd1fcdda0d859fcbb", "fields": {"city": "Imlay City", "zip": "48444", "dst": 1, "geopoint": [43.038967, -83.06067], "longitude": -83.06067, "state": "MI", "latitude": 43.038967, "timezone": -5}, "geometry": {"type": "Point", "coordinates": [-83.06067, 43.038967]}, "record_timestamp": "2018-02-09T11:33:38.603-05:00"},{"datasetid": "us-zip-code-latitude-and-longitude@public", "recordid": "b09d984d3089f63d334a1f0e191ebc6ce31aaea9", "fields": {"city": "Homer", "zip": "49245", "dst": 1, "geopoint": [42.147222, -84.80789], "longitude": -84.80789, "state": "MI", "latitude": 42.147222, "timezone": -5}, "geometry": {"type": "Point", "coordinates": [-84.80789, 42.147222]}, "record_timestamp": "2018-02-09T11:33:38.603-05:00"},{"datasetid": "us-zip-code-latitude-and-longitude@public", "recordid": "af158c13c9cbcddfef849a9ca247f58d70c77179", "fields": {"city": "Adrian", "zip": "49221", "dst": 1, "geopoint": [41.900927, -84.04585], "longitude": -84.04585, "state": "MI", "latitude": 41.900927, "timezone": -5}, "geometry": {"type": "Point", "coordinates": [-84.04585, 41.900927]}, "record_timestamp": "2018-02-09T11:33:38.603-05:00"},{"datasetid": "us-zip-code-latitude-and-longitude@public", "recordid": "dfd83f503b37f3a2e7ba1daa6f2bd0c5c9c6ea81", "fields": {"city": "Morley", "zip": "49336", "dst": 1, "geopoint": [43.494361, -85.43184], "longitude": -85.43184, "state": "MI", "latitude": 43.494361, "timezone": -5}, "geometry": {"type": "Point", "coordinates": [-85.43184, 43.494361]}, "record_timestamp": "2018-02-09T11:33:38.603-05:00"},{"datasetid": "us-zip-code-latitude-and-longitude@public", "recordid": "ed1a27c781350b3a1e80277f7be7e695430daa69", "fields": {"city": "Plainwell", "zip": "49080", "dst": 1, "geopoint": [42.462935, -85.61256], "longitude": -85.61256, "state": "MI", "latitude": 42.462935, "timezone": -5}, "geometry": {"type": "Point", "coordinates": [-85.61256, 42.462935]}, "record_timestamp": "2018-02-09T11:33:38.603-05:00"},{"datasetid": "us-zip-code-latitude-and-longitude@public", "recordid": "50669d8afe56e57754a306ae9989a32745e405f3", "fields": {"city": "Benton Harbor", "zip": "49023", "dst": 1, "geopoint": [42.001551, -86.715294], "longitude": -86.715294, "state": "MI", "latitude": 42.001551, "timezone": -5}, "geometry": {"type": "Point", "coordinates": [-86.715294, 42.001551]}, "record_timestamp": "2018-02-09T11:33:38.603-05:00"},{"datasetid": "us-zip-code-latitude-and-longitude@public", "recordid": "d1505179fae0dd9fe78616782a4b2641fba308d3", "fields": {"city": "Ottawa Lake", "zip": "49267", "dst": 1, "geopoint": [41.757599, -83.70951], "longitude": -83.70951, "state": "MI", "latitude": 41.757599, "timezone": -5}, "geometry": {"type": "Point", "coordinates": [-83.70951, 41.757599]}, "record_timestamp": "2018-02-09T11:33:38.603-05:00"},{"datasetid": "us-zip-code-latitude-and-longitude@public", "recordid": "e1912f386cb9823c55f114dd2edaec6290b06757", "fields": {"city": "Detroit", "zip": "48277", "dst": 1, "geopoint": [42.239933, -83.150823], "longitude": -83.150823, "state": "MI", "latitude": 42.239933, "timezone": -5}, "geometry": {"type": "Point", "coordinates": [-83.150823, 42.239933]}, "record_timestamp": "2018-02-09T11:33:38.603-05:00"},{"datasetid": "us-zip-code-latitude-and-longitude@public", "recordid": "f41b74d2a78a5cc5e0f32a613322a8bbadb9c152", "fields": {"city": "Jasper", "zip": "49248", "dst": 1, "geopoint": [41.766891, -84.01395], "longitude": -84.01395, "state": "MI", "latitude": 41.766891, "timezone": -5}, "geometry": {"type": "Point", "coordinates": [-84.01395, 41.766891]}, "record_timestamp": "2018-02-09T11:33:38.603-05:00"},{"datasetid": "us-zip-code-latitude-and-longitude@public", "recordid": "86ae5100d6b1c5079f0ce7a9183112b2e1c9adc6", "fields": {"city": "Lake Leelanau", "zip": "49653", "dst": 1, "geopoint": [44.975051, -85.72325], "longitude": -85.72325, "state": "MI", "latitude": 44.975051, "timezone": -5}, "geometry": {"type": "Point", "coordinates": [-85.72325, 44.975051]}, "record_timestamp": "2018-02-09T11:33:38.603-05:00"},{"datasetid": "us-zip-code-latitude-and-longitude@public", "recordid": "51f8dab570503ce485ff5d89c001c8f0703728cc", "fields": {"city": "Palmer", "zip": "49871", "dst": 1, "geopoint": [46.440274, -87.58988], "longitude": -87.58988, "state": "MI", "latitude": 46.440274, "timezone": -5}, "geometry": {"type": "Point", "coordinates": [-87.58988, 46.440274]}, "record_timestamp": "2018-02-09T11:33:38.603-05:00"},{"datasetid": "us-zip-code-latitude-and-longitude@public", "recordid": "3b0aa8892c435351ec4a17c5c1f4f18eaa861f22", "fields": {"city": "Vassar", "zip": "48768", "dst": 1, "geopoint": [43.370434, -83.57917], "longitude": -83.57917, "state": "MI", "latitude": 43.370434, "timezone": -5}, "geometry": {"type": "Point", "coordinates": [-83.57917, 43.370434]}, "record_timestamp": "2018-02-09T11:33:38.603-05:00"},{"datasetid": "us-zip-code-latitude-and-longitude@public", "recordid": "858e97c18f741da52d756d27974226c2326bcda8", "fields": {"city": "Ann Arbor", "zip": "48109", "dst": 1, "geopoint": [42.291637, -83.71831], "longitude": -83.71831, "state": "MI", "latitude": 42.291637, "timezone": -5}, "geometry": {"type": "Point", "coordinates": [-83.71831, 42.291637]}, "record_timestamp": "2018-02-09T11:33:38.603-05:00"},{"datasetid": "us-zip-code-latitude-and-longitude@public", "recordid": "5cf34e76fb54a7c09ee69072a6157caa0099ab9b", "fields": {"city": "Copper Harbor", "zip": "49918", "dst": 1, "geopoint": [47.467597, -87.88212], "longitude": -87.88212, "state": "MI", "latitude": 47.467597, "timezone": -5}, "geometry": {"type": "Point", "coordinates": [-87.88212, 47.467597]}, "record_timestamp": "2018-02-09T11:33:38.603-05:00"},{"datasetid": "us-zip-code-latitude-and-longitude@public", "recordid": "77047743b940eada62ecc60d362fe80203da81cd", "fields": {"city": "Charlevoix", "zip": "49720", "dst": 1, "geopoint": [45.294169, -85.24516], "longitude": -85.24516, "state": "MI", "latitude": 45.294169, "timezone": -5}, "geometry": {"type": "Point", "coordinates": [-85.24516, 45.294169]}, "record_timestamp": "2018-02-09T11:33:38.603-05:00"},{"datasetid": "us-zip-code-latitude-and-longitude@public", "recordid": "e12f3d3b39c8762347412a1b537e3702eddcecde", "fields": {"city": "Trout Lake", "zip": "49793", "dst": 1, "geopoint": [46.199197, -85.05287], "longitude": -85.05287, "state": "MI", "latitude": 46.199197, "timezone": -5}, "geometry": {"type": "Point", "coordinates": [-85.05287, 46.199197]}, "record_timestamp": "2018-02-09T11:33:38.603-05:00"},{"datasetid": "us-zip-code-latitude-and-longitude@public", "recordid": "5b67bb405deee3189937843d9924ffac563ff196", "fields": {"city": "Sanford", "zip": "48657", "dst": 1, "geopoint": [43.69784, -84.39169], "longitude": -84.39169, "state": "MI", "latitude": 43.69784, "timezone": -5}, "geometry": {"type": "Point", "coordinates": [-84.39169, 43.69784]}, "record_timestamp": "2018-02-09T11:33:38.603-05:00"},{"datasetid": "us-zip-code-latitude-and-longitude@public", "recordid": "ab1745491ca705cb92144f9a024ed1b37d8f2d9e", "fields": {"city": "Grant", "zip": "49327", "dst": 1, "geopoint": [43.34022, -85.82566], "longitude": -85.82566, "state": "MI", "latitude": 43.34022, "timezone": -5}, "geometry": {"type": "Point", "coordinates": [-85.82566, 43.34022]}, "record_timestamp": "2018-02-09T11:33:38.603-05:00"},{"datasetid": "us-zip-code-latitude-and-longitude@public", "recordid": "14dec0b88cc6c2c39c5bfe3e6d0fc856b7dbfaa9", "fields": {"city": "Burt", "zip": "48417", "dst": 1, "geopoint": [43.262162000000004, -83.93995], "longitude": -83.93995, "state": "MI", "latitude": 43.262162000000004, "timezone": -5}, "geometry": {"type": "Point", "coordinates": [-83.93995, 43.262162000000004]}, "record_timestamp": "2018-02-09T11:33:38.603-05:00"},{"datasetid": "us-zip-code-latitude-and-longitude@public", "recordid": "850de3cd0ebd78a38a788778b75df4c4360c8fb7", "fields": {"city": "Ubly", "zip": "48475", "dst": 1, "geopoint": [43.673699, -82.9257], "longitude": -82.9257, "state": "MI", "latitude": 43.673699, "timezone": -5}, "geometry": {"type": "Point", "coordinates": [-82.9257, 43.673699]}, "record_timestamp": "2018-02-09T11:33:38.603-05:00"},{"datasetid": "us-zip-code-latitude-and-longitude@public", "recordid": "6d741d24fb9c31bc6f89230222763a1020d15a5a", "fields": {"city": "Belleville", "zip": "48112", "dst": 1, "geopoint": [42.239933, -83.150823], "longitude": -83.150823, "state": "MI", "latitude": 42.239933, "timezone": -5}, "geometry": {"type": "Point", "coordinates": [-83.150823, 42.239933]}, "record_timestamp": "2018-02-09T11:33:38.603-05:00"},{"datasetid": "us-zip-code-latitude-and-longitude@public", "recordid": "c5f45c0a2b755fe83885920a87619e1778bbd7ff", "fields": {"city": "North Branch", "zip": "48461", "dst": 1, "geopoint": [43.210744, -83.20549], "longitude": -83.20549, "state": "MI", "latitude": 43.210744, "timezone": -5}, "geometry": {"type": "Point", "coordinates": [-83.20549, 43.210744]}, "record_timestamp": "2018-02-09T11:33:38.603-05:00"},{"datasetid": "us-zip-code-latitude-and-longitude@public", "recordid": "668995941efb19bbbcb34fd09ca3003a82aa9022", "fields": {"city": "Grand Rapids", "zip": "49555", "dst": 1, "geopoint": [43.031413, -85.550267], "longitude": -85.550267, "state": "MI", "latitude": 43.031413, "timezone": -5}, "geometry": {"type": "Point", "coordinates": [-85.550267, 43.031413]}, "record_timestamp": "2018-02-09T11:33:38.603-05:00"},{"datasetid": "us-zip-code-latitude-and-longitude@public", "recordid": "7954abd8399b41da707001b54ad958903f17f258", "fields": {"city": "Rock", "zip": "49880", "dst": 1, "geopoint": [46.086125, -87.20146], "longitude": -87.20146, "state": "MI", "latitude": 46.086125, "timezone": -5}, "geometry": {"type": "Point", "coordinates": [-87.20146, 46.086125]}, "record_timestamp": "2018-02-09T11:33:38.603-05:00"},{"datasetid": "us-zip-code-latitude-and-longitude@public", "recordid": "c02ef3cea1a15df93bfb62e942d10a5a90147923", "fields": {"city": "Alger", "zip": "48610", "dst": 1, "geopoint": [44.142282, -84.14497], "longitude": -84.14497, "state": "MI", "latitude": 44.142282, "timezone": -5}, "geometry": {"type": "Point", "coordinates": [-84.14497, 44.142282]}, "record_timestamp": "2018-02-09T11:33:38.603-05:00"},{"datasetid": "us-zip-code-latitude-and-longitude@public", "recordid": "f9bc0db040d1e6874b9323632ad3be51137800e3", "fields": {"city": "Maple City", "zip": "49664", "dst": 1, "geopoint": [44.888566, -85.89914], "longitude": -85.89914, "state": "MI", "latitude": 44.888566, "timezone": -5}, "geometry": {"type": "Point", "coordinates": [-85.89914, 44.888566]}, "record_timestamp": "2018-02-09T11:33:38.603-05:00"},{"datasetid": "us-zip-code-latitude-and-longitude@public", "recordid": "dabd355fcea91e69d73bcb442fe155280c058bc1", "fields": {"city": "Horton", "zip": "49246", "dst": 1, "geopoint": [42.118019, -84.49338], "longitude": -84.49338, "state": "MI", "latitude": 42.118019, "timezone": -5}, "geometry": {"type": "Point", "coordinates": [-84.49338, 42.118019]}, "record_timestamp": "2018-02-09T11:33:38.603-05:00"},{"datasetid": "us-zip-code-latitude-and-longitude@public", "recordid": "81cccf07b12d7c96705769e43f1ba421c1f24199", "fields": {"city": "Lansing", "zip": "48930", "dst": 1, "geopoint": [42.732535, -84.558679], "longitude": -84.558679, "state": "MI", "latitude": 42.732535, "timezone": -5}, "geometry": {"type": "Point", "coordinates": [-84.558679, 42.732535]}, "record_timestamp": "2018-02-09T11:33:38.603-05:00"},{"datasetid": "us-zip-code-latitude-and-longitude@public", "recordid": "0716578232b76fffbf25d2df20ac775d4f59ab51", "fields": {"city": "Howard City", "zip": "49329", "dst": 1, "geopoint": [43.405689, -85.47744], "longitude": -85.47744, "state": "MI", "latitude": 43.405689, "timezone": -5}, "geometry": {"type": "Point", "coordinates": [-85.47744, 43.405689]}, "record_timestamp": "2018-02-09T11:33:38.603-05:00"},{"datasetid": "us-zip-code-latitude-and-longitude@public", "recordid": "b474708550659ee7684fe03bcb00c33ba0e8326c", "fields": {"city": "Mackinac Island", "zip": "49757", "dst": 1, "geopoint": [45.856777, -84.62643], "longitude": -84.62643, "state": "MI", "latitude": 45.856777, "timezone": -5}, "geometry": {"type": "Point", "coordinates": [-84.62643, 45.856777]}, "record_timestamp": "2018-02-09T11:33:38.603-05:00"},{"datasetid": "us-zip-code-latitude-and-longitude@public", "recordid": "63e2cb742cf9ec64492ac9bab28ac145a42d1d28", "fields": {"city": "Palms", "zip": "48465", "dst": 1, "geopoint": [43.618879, -82.6874], "longitude": -82.6874, "state": "MI", "latitude": 43.618879, "timezone": -5}, "geometry": {"type": "Point", "coordinates": [-82.6874, 43.618879]}, "record_timestamp": "2018-02-09T11:33:38.603-05:00"},{"datasetid": "us-zip-code-latitude-and-longitude@public", "recordid": "e2acb957a206eb755a1c80e80820970525b12fba", "fields": {"city": "Spring Arbor", "zip": "49283", "dst": 1, "geopoint": [42.203838, -84.55243], "longitude": -84.55243, "state": "MI", "latitude": 42.203838, "timezone": -5}, "geometry": {"type": "Point", "coordinates": [-84.55243, 42.203838]}, "record_timestamp": "2018-02-09T11:33:38.603-05:00"},{"datasetid": "us-zip-code-latitude-and-longitude@public", "recordid": "bbeeef4ee5823442c7bf42dcd4cc87b4de54a8f4", "fields": {"city": "Grosse Pointe", "zip": "48230", "dst": 1, "geopoint": [42.386087, -82.92426], "longitude": -82.92426, "state": "MI", "latitude": 42.386087, "timezone": -5}, "geometry": {"type": "Point", "coordinates": [-82.92426, 42.386087]}, "record_timestamp": "2018-02-09T11:33:38.603-05:00"},{"datasetid": "us-zip-code-latitude-and-longitude@public", "recordid": "7d07456bfebbb59baf0994fa862ff8ff0a39af04", "fields": {"city": "Detroit", "zip": "48231", "dst": 1, "geopoint": [42.239933, -83.150823], "longitude": -83.150823, "state": "MI", "latitude": 42.239933, "timezone": -5}, "geometry": {"type": "Point", "coordinates": [-83.150823, 42.239933]}, "record_timestamp": "2018-02-09T11:33:38.603-05:00"},{"datasetid": "us-zip-code-latitude-and-longitude@public", "recordid": "ad9c11c9e4fc5d78fc9bde1b527cd5afe24ec722", "fields": {"city": "Linden", "zip": "48451", "dst": 1, "geopoint": [42.800911, -83.81366], "longitude": -83.81366, "state": "MI", "latitude": 42.800911, "timezone": -5}, "geometry": {"type": "Point", "coordinates": [-83.81366, 42.800911]}, "record_timestamp": "2018-02-09T11:33:38.603-05:00"},{"datasetid": "us-zip-code-latitude-and-longitude@public", "recordid": "1ed18f3434b8040c03af5d20fa3e8aaced6994cc", "fields": {"city": "Dorr", "zip": "49323", "dst": 1, "geopoint": [42.721597, -85.77879], "longitude": -85.77879, "state": "MI", "latitude": 42.721597, "timezone": -5}, "geometry": {"type": "Point", "coordinates": [-85.77879, 42.721597]}, "record_timestamp": "2018-02-09T11:33:38.603-05:00"},{"datasetid": "us-zip-code-latitude-and-longitude@public", "recordid": "40d1bc61b82f8ffa90f8eb766cb35f5db2b0f9d2", "fields": {"city": "Leroy", "zip": "49655", "dst": 1, "geopoint": [44.023714, -85.44877], "longitude": -85.44877, "state": "MI", "latitude": 44.023714, "timezone": -5}, "geometry": {"type": "Point", "coordinates": [-85.44877, 44.023714]}, "record_timestamp": "2018-02-09T11:33:38.603-05:00"},{"datasetid": "us-zip-code-latitude-and-longitude@public", "recordid": "3ff576ca2e6b86b9737a7b7ce039113f6ceac26e", "fields": {"city": "Detroit", "zip": "48279", "dst": 1, "geopoint": [42.239933, -83.150823], "longitude": -83.150823, "state": "MI", "latitude": 42.239933, "timezone": -5}, "geometry": {"type": "Point", "coordinates": [-83.150823, 42.239933]}, "record_timestamp": "2018-02-09T11:33:38.603-05:00"},{"datasetid": "us-zip-code-latitude-and-longitude@public", "recordid": "c9f645caac827834ce49613cf3a71e2260a4e76d", "fields": {"city": "Cross Village", "zip": "49723", "dst": 1, "geopoint": [45.625353, -85.041872], "longitude": -85.041872, "state": "MI", "latitude": 45.625353, "timezone": -5}, "geometry": {"type": "Point", "coordinates": [-85.041872, 45.625353]}, "record_timestamp": "2018-02-09T11:33:38.603-05:00"},{"datasetid": "us-zip-code-latitude-and-longitude@public", "recordid": "48c06df8cbf12275eef305c99e661555c75aa126", "fields": {"city": "Saint Clair", "zip": "48079", "dst": 1, "geopoint": [42.833034, -82.50425], "longitude": -82.50425, "state": "MI", "latitude": 42.833034, "timezone": -5}, "geometry": {"type": "Point", "coordinates": [-82.50425, 42.833034]}, "record_timestamp": "2018-02-09T11:33:38.603-05:00"},{"datasetid": "us-zip-code-latitude-and-longitude@public", "recordid": "2805dc7100d7c27b40de14af773723c65e3d263e", "fields": {"city": "Westphalia", "zip": "48894", "dst": 1, "geopoint": [42.928735, -84.7996], "longitude": -84.7996, "state": "MI", "latitude": 42.928735, "timezone": -5}, "geometry": {"type": "Point", "coordinates": [-84.7996, 42.928735]}, "record_timestamp": "2018-02-09T11:33:38.603-05:00"},{"datasetid": "us-zip-code-latitude-and-longitude@public", "recordid": "c2af15fe5c3321e4a078e458970a4e1948c872ac", "fields": {"city": "Rapid City", "zip": "49676", "dst": 1, "geopoint": [44.829056, -85.27959], "longitude": -85.27959, "state": "MI", "latitude": 44.829056, "timezone": -5}, "geometry": {"type": "Point", "coordinates": [-85.27959, 44.829056]}, "record_timestamp": "2018-02-09T11:33:38.603-05:00"},{"datasetid": "us-zip-code-latitude-and-longitude@public", "recordid": "6e3ad3faf8b9f6d288d8536cc998ad5cc5840506", "fields": {"city": "Bay Shore", "zip": "49711", "dst": 1, "geopoint": [45.523425, -85.332038], "longitude": -85.332038, "state": "MI", "latitude": 45.523425, "timezone": -5}, "geometry": {"type": "Point", "coordinates": [-85.332038, 45.523425]}, "record_timestamp": "2018-02-09T11:33:38.603-05:00"},{"datasetid": "us-zip-code-latitude-and-longitude@public", "recordid": "a4b1a3dd7318aa63202b9b67ddac80731440aa67", "fields": {"city": "Memphis", "zip": "48041", "dst": 1, "geopoint": [42.93281, -82.80345], "longitude": -82.80345, "state": "MI", "latitude": 42.93281, "timezone": -5}, "geometry": {"type": "Point", "coordinates": [-82.80345, 42.93281]}, "record_timestamp": "2018-02-09T11:33:38.603-05:00"},{"datasetid": "us-zip-code-latitude-and-longitude@public", "recordid": "538c7ed675ed23e599baaa2c14c8ecdc26a1fa76", "fields": {"city": "Livonia", "zip": "48151", "dst": 1, "geopoint": [42.239933, -83.150823], "longitude": -83.150823, "state": "MI", "latitude": 42.239933, "timezone": -5}, "geometry": {"type": "Point", "coordinates": [-83.150823, 42.239933]}, "record_timestamp": "2018-02-09T11:33:38.603-05:00"},{"datasetid": "us-zip-code-latitude-and-longitude@public", "recordid": "bf511c57580324e68f73773f07e92889a04f00ba", "fields": {"city": "Morrice", "zip": "48857", "dst": 1, "geopoint": [42.845703, -84.16581], "longitude": -84.16581, "state": "MI", "latitude": 42.845703, "timezone": -5}, "geometry": {"type": "Point", "coordinates": [-84.16581, 42.845703]}, "record_timestamp": "2018-02-09T11:33:38.603-05:00"},{"datasetid": "us-zip-code-latitude-and-longitude@public", "recordid": "c7211ae8e6a86eac5fc489c1ddc4bb2ea52b2c56", "fields": {"city": "Detroit", "zip": "48268", "dst": 1, "geopoint": [42.239933, -83.150823], "longitude": -83.150823, "state": "MI", "latitude": 42.239933, "timezone": -5}, "geometry": {"type": "Point", "coordinates": [-83.150823, 42.239933]}, "record_timestamp": "2018-02-09T11:33:38.603-05:00"},{"datasetid": "us-zip-code-latitude-and-longitude@public", "recordid": "e024daf854a305c6e25b8f13efdc0e909950b179", "fields": {"city": "New Baltimore", "zip": "48051", "dst": 1, "geopoint": [42.682081, -82.83068], "longitude": -82.83068, "state": "MI", "latitude": 42.682081, "timezone": -5}, "geometry": {"type": "Point", "coordinates": [-82.83068, 42.682081]}, "record_timestamp": "2018-02-09T11:33:38.603-05:00"},{"datasetid": "us-zip-code-latitude-and-longitude@public", "recordid": "10bd817aaebaa7c408b7ffa2d5dae99d53ee8603", "fields": {"city": "Marenisco", "zip": "49947", "dst": 1, "geopoint": [46.420235, -89.66518], "longitude": -89.66518, "state": "MI", "latitude": 46.420235, "timezone": -6}, "geometry": {"type": "Point", "coordinates": [-89.66518, 46.420235]}, "record_timestamp": "2018-02-09T11:33:38.603-05:00"},{"datasetid": "us-zip-code-latitude-and-longitude@public", "recordid": "dfc74d00149c162d2d579b736d9b163f17c34261", "fields": {"city": "Lansing", "zip": "48913", "dst": 1, "geopoint": [42.599184, -84.371973], "longitude": -84.371973, "state": "MI", "latitude": 42.599184, "timezone": -5}, "geometry": {"type": "Point", "coordinates": [-84.371973, 42.599184]}, "record_timestamp": "2018-02-09T11:33:38.603-05:00"},{"datasetid": "us-zip-code-latitude-and-longitude@public", "recordid": "b86e119c46f887fe5950230bc0efa00340243d97", "fields": {"city": "Saline", "zip": "48176", "dst": 1, "geopoint": [42.16489, -83.78387], "longitude": -83.78387, "state": "MI", "latitude": 42.16489, "timezone": -5}, "geometry": {"type": "Point", "coordinates": [-83.78387, 42.16489]}, "record_timestamp": "2018-02-09T11:33:38.603-05:00"},{"datasetid": "us-zip-code-latitude-and-longitude@public", "recordid": "40c4281067d143c4a2a3b29d443ccbb7b5415638", "fields": {"city": "Southfield", "zip": "48086", "dst": 1, "geopoint": [42.660091, -83.3863], "longitude": -83.3863, "state": "MI", "latitude": 42.660091, "timezone": -5}, "geometry": {"type": "Point", "coordinates": [-83.3863, 42.660091]}, "record_timestamp": "2018-02-09T11:33:38.603-05:00"},{"datasetid": "us-zip-code-latitude-and-longitude@public", "recordid": "86d35027805a21e0b850356e07f245a85d2fa5c1", "fields": {"city": "Macomb", "zip": "48044", "dst": 1, "geopoint": [42.650265, -82.93416], "longitude": -82.93416, "state": "MI", "latitude": 42.650265, "timezone": -5}, "geometry": {"type": "Point", "coordinates": [-82.93416, 42.650265]}, "record_timestamp": "2018-02-09T11:33:38.603-05:00"},{"datasetid": "us-zip-code-latitude-and-longitude@public", "recordid": "fae3d6246371a1475c50af0a0e83e71847261178", "fields": {"city": "Detroit", "zip": "48227", "dst": 1, "geopoint": [42.388786, -83.1918], "longitude": -83.1918, "state": "MI", "latitude": 42.388786, "timezone": -5}, "geometry": {"type": "Point", "coordinates": [-83.1918, 42.388786]}, "record_timestamp": "2018-02-09T11:33:38.603-05:00"},{"datasetid": "us-zip-code-latitude-and-longitude@public", "recordid": "25febfae8d2034e740bdc427fe2a793c297e266c", "fields": {"city": "Deerton", "zip": "49822", "dst": 1, "geopoint": [46.470986, -87.06843], "longitude": -87.06843, "state": "MI", "latitude": 46.470986, "timezone": -5}, "geometry": {"type": "Point", "coordinates": [-87.06843, 46.470986]}, "record_timestamp": "2018-02-09T11:33:38.603-05:00"},{"datasetid": "us-zip-code-latitude-and-longitude@public", "recordid": "10d9704fd3f1bc362ce66310a21be72adb52cf11", "fields": {"city": "Loretto", "zip": "49852", "dst": 1, "geopoint": [45.781166999999996, -87.81759], "longitude": -87.81759, "state": "MI", "latitude": 45.781166999999996, "timezone": -6}, "geometry": {"type": "Point", "coordinates": [-87.81759, 45.781166999999996]}, "record_timestamp": "2018-02-09T11:33:38.603-05:00"},{"datasetid": "us-zip-code-latitude-and-longitude@public", "recordid": "7d0c7e89865a22196dda17fd90baca8306ecba49", "fields": {"city": "Ovid", "zip": "48866", "dst": 1, "geopoint": [42.997636, -84.37643], "longitude": -84.37643, "state": "MI", "latitude": 42.997636, "timezone": -5}, "geometry": {"type": "Point", "coordinates": [-84.37643, 42.997636]}, "record_timestamp": "2018-02-09T11:33:38.603-05:00"},{"datasetid": "us-zip-code-latitude-and-longitude@public", "recordid": "152b5ea432fbf086247f02f693cb6356b3afb3a5", "fields": {"city": "Cement City", "zip": "49233", "dst": 1, "geopoint": [42.071196, -84.3494], "longitude": -84.3494, "state": "MI", "latitude": 42.071196, "timezone": -5}, "geometry": {"type": "Point", "coordinates": [-84.3494, 42.071196]}, "record_timestamp": "2018-02-09T11:33:38.603-05:00"},{"datasetid": "us-zip-code-latitude-and-longitude@public", "recordid": "abb68b998eb44205612834c07c8b065f2d3ccf2c", "fields": {"city": "Pickford", "zip": "49774", "dst": 1, "geopoint": [46.165132, -84.33219], "longitude": -84.33219, "state": "MI", "latitude": 46.165132, "timezone": -5}, "geometry": {"type": "Point", "coordinates": [-84.33219, 46.165132]}, "record_timestamp": "2018-02-09T11:33:38.603-05:00"},{"datasetid": "us-zip-code-latitude-and-longitude@public", "recordid": "edaa14c32e7c515db44ed1a3af286744a020d34e", "fields": {"city": "Cedar River", "zip": "49813", "dst": 1, "geopoint": [45.435313, -87.37679], "longitude": -87.37679, "state": "MI", "latitude": 45.435313, "timezone": -6}, "geometry": {"type": "Point", "coordinates": [-87.37679, 45.435313]}, "record_timestamp": "2018-02-09T11:33:38.603-05:00"},{"datasetid": "us-zip-code-latitude-and-longitude@public", "recordid": "846357d981ce7521c3101d83cdb8c0c9c10480b8", "fields": {"city": "Farmington", "zip": "48332", "dst": 1, "geopoint": [42.660091, -83.3863], "longitude": -83.3863, "state": "MI", "latitude": 42.660091, "timezone": -5}, "geometry": {"type": "Point", "coordinates": [-83.3863, 42.660091]}, "record_timestamp": "2018-02-09T11:33:38.603-05:00"},{"datasetid": "us-zip-code-latitude-and-longitude@public", "recordid": "66b55afa7124dd3a2bf537da119d7e14b38ed17e", "fields": {"city": "Burton", "zip": "48529", "dst": 1, "geopoint": [42.972477, -83.67085], "longitude": -83.67085, "state": "MI", "latitude": 42.972477, "timezone": -5}, "geometry": {"type": "Point", "coordinates": [-83.67085, 42.972477]}, "record_timestamp": "2018-02-09T11:33:38.603-05:00"},{"datasetid": "us-zip-code-latitude-and-longitude@public", "recordid": "06df3e88ff5e43bc3e98f25d5b879a5b2b3dd48e", "fields": {"city": "Bath", "zip": "48808", "dst": 1, "geopoint": [42.821233, -84.46099], "longitude": -84.46099, "state": "MI", "latitude": 42.821233, "timezone": -5}, "geometry": {"type": "Point", "coordinates": [-84.46099, 42.821233]}, "record_timestamp": "2018-02-09T11:33:38.603-05:00"},{"datasetid": "us-zip-code-latitude-and-longitude@public", "recordid": "a25378e31060f3d0593c680a243dfcd041ee3f94", "fields": {"city": "Walloon Lake", "zip": "49796", "dst": 1, "geopoint": [45.269001, -84.9475], "longitude": -84.9475, "state": "MI", "latitude": 45.269001, "timezone": -5}, "geometry": {"type": "Point", "coordinates": [-84.9475, 45.269001]}, "record_timestamp": "2018-02-09T11:33:38.603-05:00"},{"datasetid": "us-zip-code-latitude-and-longitude@public", "recordid": "619dd88b2c4c5249aad0319845b1b60e2ee1bfdd", "fields": {"city": "Rothbury", "zip": "49452", "dst": 1, "geopoint": [43.520576, -86.27335], "longitude": -86.27335, "state": "MI", "latitude": 43.520576, "timezone": -5}, "geometry": {"type": "Point", "coordinates": [-86.27335, 43.520576]}, "record_timestamp": "2018-02-09T11:33:38.603-05:00"},{"datasetid": "us-zip-code-latitude-and-longitude@public", "recordid": "539fcc19002d3f5282bc7e1b84e5c9e8f51a6b10", "fields": {"city": "Almont", "zip": "48003", "dst": 1, "geopoint": [42.931178, -83.04585], "longitude": -83.04585, "state": "MI", "latitude": 42.931178, "timezone": -5}, "geometry": {"type": "Point", "coordinates": [-83.04585, 42.931178]}, "record_timestamp": "2018-02-09T11:33:38.603-05:00"},{"datasetid": "us-zip-code-latitude-and-longitude@public", "recordid": "3fb458f5577a93eab62a48b454e2e1db31cef87c", "fields": {"city": "Saginaw", "zip": "48605", "dst": 1, "geopoint": [43.458776, -84.051827], "longitude": -84.051827, "state": "MI", "latitude": 43.458776, "timezone": -5}, "geometry": {"type": "Point", "coordinates": [-84.051827, 43.458776]}, "record_timestamp": "2018-02-09T11:33:38.603-05:00"},{"datasetid": "us-zip-code-latitude-and-longitude@public", "recordid": "e6aa5a733a7c68ebf9cab9b11796888aa4b6283e", "fields": {"city": "Menominee", "zip": "49858", "dst": 1, "geopoint": [45.1431, -87.60897], "longitude": -87.60897, "state": "MI", "latitude": 45.1431, "timezone": -6}, "geometry": {"type": "Point", "coordinates": [-87.60897, 45.1431]}, "record_timestamp": "2018-02-09T11:33:38.603-05:00"},{"datasetid": "us-zip-code-latitude-and-longitude@public", "recordid": "86eb8c71c122e8757a18b44a9089984c1019393f", "fields": {"city": "Byron", "zip": "48418", "dst": 1, "geopoint": [42.816358, -83.95884], "longitude": -83.95884, "state": "MI", "latitude": 42.816358, "timezone": -5}, "geometry": {"type": "Point", "coordinates": [-83.95884, 42.816358]}, "record_timestamp": "2018-02-09T11:33:38.603-05:00"},{"datasetid": "us-zip-code-latitude-and-longitude@public", "recordid": "a19722537e5ea611f6c5b08b5264509b085e4d5b", "fields": {"city": "Moscow", "zip": "49257", "dst": 1, "geopoint": [42.054795, -84.503905], "longitude": -84.503905, "state": "MI", "latitude": 42.054795, "timezone": -5}, "geometry": {"type": "Point", "coordinates": [-84.503905, 42.054795]}, "record_timestamp": "2018-02-09T11:33:38.603-05:00"},{"datasetid": "us-zip-code-latitude-and-longitude@public", "recordid": "b5240755d58883a34b58491c5cddb8ddd12d1865", "fields": {"city": "Ravenna", "zip": "49451", "dst": 1, "geopoint": [43.200998, -85.96376], "longitude": -85.96376, "state": "MI", "latitude": 43.200998, "timezone": -5}, "geometry": {"type": "Point", "coordinates": [-85.96376, 43.200998]}, "record_timestamp": "2018-02-09T11:33:38.603-05:00"},{"datasetid": "us-zip-code-latitude-and-longitude@public", "recordid": "f340bb5235f00282efae40f4763c3ec49eac32d5", "fields": {"city": "Champion", "zip": "49814", "dst": 1, "geopoint": [46.501074, -87.92354], "longitude": -87.92354, "state": "MI", "latitude": 46.501074, "timezone": -5}, "geometry": {"type": "Point", "coordinates": [-87.92354, 46.501074]}, "record_timestamp": "2018-02-09T11:33:38.603-05:00"},{"datasetid": "us-zip-code-latitude-and-longitude@public", "recordid": "07f3392e583487976b25d4dc9064adb708530587", "fields": {"city": "East Lansing", "zip": "48826", "dst": 1, "geopoint": [42.599184, -84.371973], "longitude": -84.371973, "state": "MI", "latitude": 42.599184, "timezone": -5}, "geometry": {"type": "Point", "coordinates": [-84.371973, 42.599184]}, "record_timestamp": "2018-02-09T11:33:38.603-05:00"},{"datasetid": "us-zip-code-latitude-and-longitude@public", "recordid": "c7a16e579097b71348df289ffbbb948f575815f7", "fields": {"city": "Dearborn", "zip": "48123", "dst": 1, "geopoint": [42.239933, -83.150823], "longitude": -83.150823, "state": "MI", "latitude": 42.239933, "timezone": -5}, "geometry": {"type": "Point", "coordinates": [-83.150823, 42.239933]}, "record_timestamp": "2018-02-09T11:33:38.603-05:00"},{"datasetid": "us-zip-code-latitude-and-longitude@public", "recordid": "473ddc11220197ce9d1c2f5ecf0f92836815aaca", "fields": {"city": "Scottville", "zip": "49454", "dst": 1, "geopoint": [43.946244, -86.28427], "longitude": -86.28427, "state": "MI", "latitude": 43.946244, "timezone": -5}, "geometry": {"type": "Point", "coordinates": [-86.28427, 43.946244]}, "record_timestamp": "2018-02-09T11:33:38.603-05:00"},{"datasetid": "us-zip-code-latitude-and-longitude@public", "recordid": "91a955931a72ffcccdf9077e47a8893a701c6eec", "fields": {"city": "Redford", "zip": "48239", "dst": 1, "geopoint": [42.379436, -83.29105], "longitude": -83.29105, "state": "MI", "latitude": 42.379436, "timezone": -5}, "geometry": {"type": "Point", "coordinates": [-83.29105, 42.379436]}, "record_timestamp": "2018-02-09T11:33:38.603-05:00"},{"datasetid": "us-zip-code-latitude-and-longitude@public", "recordid": "226e3e0d423798a88ab4c57dfd14641ae8b89b92", "fields": {"city": "Sciota", "zip": "48448", "dst": 1, "geopoint": [42.955783, -84.300929], "longitude": -84.300929, "state": "MI", "latitude": 42.955783, "timezone": -5}, "geometry": {"type": "Point", "coordinates": [-84.300929, 42.955783]}, "record_timestamp": "2018-02-09T11:33:38.603-05:00"},{"datasetid": "us-zip-code-latitude-and-longitude@public", "recordid": "11a52b554308f50c457befbd32e27cc5f3dc294b", "fields": {"city": "Rollin", "zip": "49278", "dst": 1, "geopoint": [41.912292, -84.32652], "longitude": -84.32652, "state": "MI", "latitude": 41.912292, "timezone": -5}, "geometry": {"type": "Point", "coordinates": [-84.32652, 41.912292]}, "record_timestamp": "2018-02-09T11:33:38.603-05:00"},{"datasetid": "us-zip-code-latitude-and-longitude@public", "recordid": "e5312fb874ee94d1d49fc56f610ecd79196eca8d", "fields": {"city": "Kendall", "zip": "49062", "dst": 1, "geopoint": [42.36175, -85.814072], "longitude": -85.814072, "state": "MI", "latitude": 42.36175, "timezone": -5}, "geometry": {"type": "Point", "coordinates": [-85.814072, 42.36175]}, "record_timestamp": "2018-02-09T11:33:38.603-05:00"},{"datasetid": "us-zip-code-latitude-and-longitude@public", "recordid": "ac775e225f96da159e773d3eb35ad01a48f2b522", "fields": {"city": "Bellevue", "zip": "49021", "dst": 1, "geopoint": [42.447038, -85.04264], "longitude": -85.04264, "state": "MI", "latitude": 42.447038, "timezone": -5}, "geometry": {"type": "Point", "coordinates": [-85.04264, 42.447038]}, "record_timestamp": "2018-02-09T11:33:38.603-05:00"},{"datasetid": "us-zip-code-latitude-and-longitude@public", "recordid": "010e144fbb6805c5bd22befe55c77209c39ef2e9", "fields": {"city": "Hersey", "zip": "49639", "dst": 1, "geopoint": [43.84716, -85.40908], "longitude": -85.40908, "state": "MI", "latitude": 43.84716, "timezone": -5}, "geometry": {"type": "Point", "coordinates": [-85.40908, 43.84716]}, "record_timestamp": "2018-02-09T11:33:38.603-05:00"},{"datasetid": "us-zip-code-latitude-and-longitude@public", "recordid": "b8c0f055d8726025da889a066d369813ff0786e7", "fields": {"city": "Flint", "zip": "48559", "dst": 1, "geopoint": [43.002, -83.692507], "longitude": -83.692507, "state": "MI", "latitude": 43.002, "timezone": -5}, "geometry": {"type": "Point", "coordinates": [-83.692507, 43.002]}, "record_timestamp": "2018-02-09T11:33:38.603-05:00"},{"datasetid": "us-zip-code-latitude-and-longitude@public", "recordid": "3f03cb7e38a5aff73d2c07179beb45dd37d1066f", "fields": {"city": "Pellston", "zip": "49769", "dst": 1, "geopoint": [45.567787, -84.81464], "longitude": -84.81464, "state": "MI", "latitude": 45.567787, "timezone": -5}, "geometry": {"type": "Point", "coordinates": [-84.81464, 45.567787]}, "record_timestamp": "2018-02-09T11:33:38.603-05:00"},{"datasetid": "us-zip-code-latitude-and-longitude@public", "recordid": "0ed6dd471852ad12fee1a708fd5d0dca60e3b784", "fields": {"city": "Orleans", "zip": "48865", "dst": 1, "geopoint": [43.090038, -85.11754], "longitude": -85.11754, "state": "MI", "latitude": 43.090038, "timezone": -5}, "geometry": {"type": "Point", "coordinates": [-85.11754, 43.090038]}, "record_timestamp": "2018-02-09T11:33:38.603-05:00"},{"datasetid": "us-zip-code-latitude-and-longitude@public", "recordid": "83bf2c7e42eca536ff74c857e14e4c1b2498e0c0", "fields": {"city": "Trout Creek", "zip": "49967", "dst": 1, "geopoint": [46.459705, -89.0028], "longitude": -89.0028, "state": "MI", "latitude": 46.459705, "timezone": -5}, "geometry": {"type": "Point", "coordinates": [-89.0028, 46.459705]}, "record_timestamp": "2018-02-09T11:33:38.603-05:00"},{"datasetid": "us-zip-code-latitude-and-longitude@public", "recordid": "cdbba1fb344a46262837bf189f42c87c3c6bf72d", "fields": {"city": "Hemlock", "zip": "48626", "dst": 1, "geopoint": [43.416335, -84.22384], "longitude": -84.22384, "state": "MI", "latitude": 43.416335, "timezone": -5}, "geometry": {"type": "Point", "coordinates": [-84.22384, 43.416335]}, "record_timestamp": "2018-02-09T11:33:38.603-05:00"},{"datasetid": "us-zip-code-latitude-and-longitude@public", "recordid": "7782af03e82642eecf484cd5fe2d5cda95a16864", "fields": {"city": "Sears", "zip": "49679", "dst": 1, "geopoint": [43.878924, -85.15802], "longitude": -85.15802, "state": "MI", "latitude": 43.878924, "timezone": -5}, "geometry": {"type": "Point", "coordinates": [-85.15802, 43.878924]}, "record_timestamp": "2018-02-09T11:33:38.603-05:00"},{"datasetid": "us-zip-code-latitude-and-longitude@public", "recordid": "95d436d6876c813778bdb482556a740b9b85510d", "fields": {"city": "Argyle", "zip": "48410", "dst": 1, "geopoint": [43.558856, -82.945483], "longitude": -82.945483, "state": "MI", "latitude": 43.558856, "timezone": -5}, "geometry": {"type": "Point", "coordinates": [-82.945483, 43.558856]}, "record_timestamp": "2018-02-09T11:33:38.603-05:00"},{"datasetid": "us-zip-code-latitude-and-longitude@public", "recordid": "648fe03ffba5773236af1e617a5cf200c90a9b70", "fields": {"city": "Detroit", "zip": "48207", "dst": 1, "geopoint": [42.352837, -83.02449], "longitude": -83.02449, "state": "MI", "latitude": 42.352837, "timezone": -5}, "geometry": {"type": "Point", "coordinates": [-83.02449, 42.352837]}, "record_timestamp": "2018-02-09T11:33:38.603-05:00"},{"datasetid": "us-zip-code-latitude-and-longitude@public", "recordid": "1cba6a6732a02ba86450d5f3106e4eb3e2dc931c", "fields": {"city": "Oak Park", "zip": "48237", "dst": 1, "geopoint": [42.467235, -83.17952], "longitude": -83.17952, "state": "MI", "latitude": 42.467235, "timezone": -5}, "geometry": {"type": "Point", "coordinates": [-83.17952, 42.467235]}, "record_timestamp": "2018-02-09T11:33:38.603-05:00"},{"datasetid": "us-zip-code-latitude-and-longitude@public", "recordid": "7b4afe3a282fd64831654df0126f94041059bd4c", "fields": {"city": "Wallace", "zip": "49893", "dst": 1, "geopoint": [45.314014, -87.63114], "longitude": -87.63114, "state": "MI", "latitude": 45.314014, "timezone": -6}, "geometry": {"type": "Point", "coordinates": [-87.63114, 45.314014]}, "record_timestamp": "2018-02-09T11:33:38.603-05:00"},{"datasetid": "us-zip-code-latitude-and-longitude@public", "recordid": "92b1af170a5e51d616ee8cd8fd3b7875807a7128", "fields": {"city": "Cedar", "zip": "49621", "dst": 1, "geopoint": [44.872464, -85.78716], "longitude": -85.78716, "state": "MI", "latitude": 44.872464, "timezone": -5}, "geometry": {"type": "Point", "coordinates": [-85.78716, 44.872464]}, "record_timestamp": "2018-02-09T11:33:38.603-05:00"},{"datasetid": "us-zip-code-latitude-and-longitude@public", "recordid": "38ddcc2b34c2453b87327c793fc4d7cfcbdd1d05", "fields": {"city": "Dearborn", "zip": "48120", "dst": 1, "geopoint": [42.306288, -83.15863], "longitude": -83.15863, "state": "MI", "latitude": 42.306288, "timezone": -5}, "geometry": {"type": "Point", "coordinates": [-83.15863, 42.306288]}, "record_timestamp": "2018-02-09T11:33:38.603-05:00"},{"datasetid": "us-zip-code-latitude-and-longitude@public", "recordid": "5aafd2d1e2120d8c6ed7dc8d10bcbb003846089b", "fields": {"city": "Ithaca", "zip": "48847", "dst": 1, "geopoint": [43.269967, -84.59181], "longitude": -84.59181, "state": "MI", "latitude": 43.269967, "timezone": -5}, "geometry": {"type": "Point", "coordinates": [-84.59181, 43.269967]}, "record_timestamp": "2018-02-09T11:33:38.603-05:00"},{"datasetid": "us-zip-code-latitude-and-longitude@public", "recordid": "ab0c890f11a838c76944705be8855c3b83ec46aa", "fields": {"city": "Bessemer", "zip": "49911", "dst": 1, "geopoint": [46.480948, -90.05138], "longitude": -90.05138, "state": "MI", "latitude": 46.480948, "timezone": -6}, "geometry": {"type": "Point", "coordinates": [-90.05138, 46.480948]}, "record_timestamp": "2018-02-09T11:33:38.603-05:00"},{"datasetid": "us-zip-code-latitude-and-longitude@public", "recordid": "0648a8f5deae1a21faf8caca9177dd57e38977e9", "fields": {"city": "Little Lake", "zip": "49833", "dst": 1, "geopoint": [46.291233, -87.33355], "longitude": -87.33355, "state": "MI", "latitude": 46.291233, "timezone": -5}, "geometry": {"type": "Point", "coordinates": [-87.33355, 46.291233]}, "record_timestamp": "2018-02-09T11:33:38.603-05:00"},{"datasetid": "us-zip-code-latitude-and-longitude@public", "recordid": "e591eb710a271d390c6f742598970e2ca3801aee", "fields": {"city": "Rockford", "zip": "49341", "dst": 1, "geopoint": [43.117214, -85.5189], "longitude": -85.5189, "state": "MI", "latitude": 43.117214, "timezone": -5}, "geometry": {"type": "Point", "coordinates": [-85.5189, 43.117214]}, "record_timestamp": "2018-02-09T11:33:38.603-05:00"},{"datasetid": "us-zip-code-latitude-and-longitude@public", "recordid": "672ef21fe4f57354977ac1883ef9abe74db3fd79", "fields": {"city": "Mount Morris", "zip": "48458", "dst": 1, "geopoint": [43.116959, -83.69025], "longitude": -83.69025, "state": "MI", "latitude": 43.116959, "timezone": -5}, "geometry": {"type": "Point", "coordinates": [-83.69025, 43.116959]}, "record_timestamp": "2018-02-09T11:33:38.603-05:00"},{"datasetid": "us-zip-code-latitude-and-longitude@public", "recordid": "bab9a763beffce4fa4b82349fb132588446da252", "fields": {"city": "Westland", "zip": "48185", "dst": 1, "geopoint": [42.335937, -83.378], "longitude": -83.378, "state": "MI", "latitude": 42.335937, "timezone": -5}, "geometry": {"type": "Point", "coordinates": [-83.378, 42.335937]}, "record_timestamp": "2018-02-09T11:33:38.603-05:00"},{"datasetid": "us-zip-code-latitude-and-longitude@public", "recordid": "caa80f85e8f474e0e1ea90568e19509aa0edb17f", "fields": {"city": "Holton", "zip": "49425", "dst": 1, "geopoint": [43.443787, -86.10895], "longitude": -86.10895, "state": "MI", "latitude": 43.443787, "timezone": -5}, "geometry": {"type": "Point", "coordinates": [-86.10895, 43.443787]}, "record_timestamp": "2018-02-09T11:33:38.603-05:00"},{"datasetid": "us-zip-code-latitude-and-longitude@public", "recordid": "1e32043da9fd4b3fce9258f535540f05f23b26e1", "fields": {"city": "Grand Rapids", "zip": "49560", "dst": 1, "geopoint": [43.031413, -85.550267], "longitude": -85.550267, "state": "MI", "latitude": 43.031413, "timezone": -5}, "geometry": {"type": "Point", "coordinates": [-85.550267, 43.031413]}, "record_timestamp": "2018-02-09T11:33:38.603-05:00"},{"datasetid": "us-zip-code-latitude-and-longitude@public", "recordid": "d6870b1d8ec86895788fd82efd3576bc824f6bf1", "fields": {"city": "Republic", "zip": "49879", "dst": 1, "geopoint": [46.345957, -88.01972], "longitude": -88.01972, "state": "MI", "latitude": 46.345957, "timezone": -5}, "geometry": {"type": "Point", "coordinates": [-88.01972, 46.345957]}, "record_timestamp": "2018-02-09T11:33:38.603-05:00"},{"datasetid": "us-zip-code-latitude-and-longitude@public", "recordid": "c460b7ee17a6101485178c02c1d676f90a684164", "fields": {"city": "Athens", "zip": "49011", "dst": 1, "geopoint": [42.089314, -85.23333], "longitude": -85.23333, "state": "MI", "latitude": 42.089314, "timezone": -5}, "geometry": {"type": "Point", "coordinates": [-85.23333, 42.089314]}, "record_timestamp": "2018-02-09T11:33:38.603-05:00"},{"datasetid": "us-zip-code-latitude-and-longitude@public", "recordid": "f1cd15942376d8e5b23594a9b2f49b4de69932b9", "fields": {"city": "Mount Pleasant", "zip": "48858", "dst": 1, "geopoint": [43.60616, -84.78306], "longitude": -84.78306, "state": "MI", "latitude": 43.60616, "timezone": -5}, "geometry": {"type": "Point", "coordinates": [-84.78306, 43.60616]}, "record_timestamp": "2018-02-09T11:33:38.603-05:00"},{"datasetid": "us-zip-code-latitude-and-longitude@public", "recordid": "6eeff2b31bd0ad2aed3f002614905c5c1daa471f", "fields": {"city": "Clarksville", "zip": "48815", "dst": 1, "geopoint": [42.841491, -85.25046], "longitude": -85.25046, "state": "MI", "latitude": 42.841491, "timezone": -5}, "geometry": {"type": "Point", "coordinates": [-85.25046, 42.841491]}, "record_timestamp": "2018-02-09T11:33:38.603-05:00"},{"datasetid": "us-zip-code-latitude-and-longitude@public", "recordid": "3c2f6a9d348349b3a122f4db425c6eb1aafac559", "fields": {"city": "Eastport", "zip": "49627", "dst": 1, "geopoint": [45.107683, -85.36212], "longitude": -85.36212, "state": "MI", "latitude": 45.107683, "timezone": -5}, "geometry": {"type": "Point", "coordinates": [-85.36212, 45.107683]}, "record_timestamp": "2018-02-09T11:33:38.603-05:00"},{"datasetid": "us-zip-code-latitude-and-longitude@public", "recordid": "b250d10837a0c9288b248d8fa53ae4c1b184c546", "fields": {"city": "Grand Rapids", "zip": "49546", "dst": 1, "geopoint": [42.927801, -85.54582], "longitude": -85.54582, "state": "MI", "latitude": 42.927801, "timezone": -5}, "geometry": {"type": "Point", "coordinates": [-85.54582, 42.927801]}, "record_timestamp": "2018-02-09T11:33:38.603-05:00"},{"datasetid": "us-zip-code-latitude-and-longitude@public", "recordid": "6d6bd501bec850f64aafcd855ba33eb197c95eb3", "fields": {"city": "Brethren", "zip": "49619", "dst": 1, "geopoint": [44.306548, -86.00977], "longitude": -86.00977, "state": "MI", "latitude": 44.306548, "timezone": -5}, "geometry": {"type": "Point", "coordinates": [-86.00977, 44.306548]}, "record_timestamp": "2018-02-09T11:33:38.603-05:00"},{"datasetid": "us-zip-code-latitude-and-longitude@public", "recordid": "d5e318b5b9877d9114bbe10b3ed6ad6fde541a60", "fields": {"city": "Elk Rapids", "zip": "49629", "dst": 1, "geopoint": [44.900873, -85.40671], "longitude": -85.40671, "state": "MI", "latitude": 44.900873, "timezone": -5}, "geometry": {"type": "Point", "coordinates": [-85.40671, 44.900873]}, "record_timestamp": "2018-02-09T11:33:38.603-05:00"},{"datasetid": "us-zip-code-latitude-and-longitude@public", "recordid": "a73fc02743d12e76fec709e13d3e6a08e8bf7ef0", "fields": {"city": "Marion", "zip": "49665", "dst": 1, "geopoint": [44.095357, -85.11843], "longitude": -85.11843, "state": "MI", "latitude": 44.095357, "timezone": -5}, "geometry": {"type": "Point", "coordinates": [-85.11843, 44.095357]}, "record_timestamp": "2018-02-09T11:33:38.603-05:00"},{"datasetid": "us-zip-code-latitude-and-longitude@public", "recordid": "40dc4c71bf36ee6322330cbc77ec1da51527bd67", "fields": {"city": "Brant", "zip": "48614", "dst": 1, "geopoint": [43.25118, -84.29816], "longitude": -84.29816, "state": "MI", "latitude": 43.25118, "timezone": -5}, "geometry": {"type": "Point", "coordinates": [-84.29816, 43.25118]}, "record_timestamp": "2018-02-09T11:33:38.603-05:00"},{"datasetid": "us-zip-code-latitude-and-longitude@public", "recordid": "6dbdfaf4baf67d21f87fe8e3e888489b3b243eeb", "fields": {"city": "Newport", "zip": "48166", "dst": 1, "geopoint": [41.988228, -83.29818], "longitude": -83.29818, "state": "MI", "latitude": 41.988228, "timezone": -5}, "geometry": {"type": "Point", "coordinates": [-83.29818, 41.988228]}, "record_timestamp": "2018-02-09T11:33:38.603-05:00"},{"datasetid": "us-zip-code-latitude-and-longitude@public", "recordid": "c689e33f28b0f58a9416b1f28648566a2f2003cf", "fields": {"city": "Flint", "zip": "48532", "dst": 1, "geopoint": [43.005477, -83.76098], "longitude": -83.76098, "state": "MI", "latitude": 43.005477, "timezone": -5}, "geometry": {"type": "Point", "coordinates": [-83.76098, 43.005477]}, "record_timestamp": "2018-02-09T11:33:38.603-05:00"},{"datasetid": "us-zip-code-latitude-and-longitude@public", "recordid": "9e255a1eff8b64d93d1062248fe5444b88dc50e1", "fields": {"city": "Sherwood", "zip": "49089", "dst": 1, "geopoint": [42.010485, -85.23198], "longitude": -85.23198, "state": "MI", "latitude": 42.010485, "timezone": -5}, "geometry": {"type": "Point", "coordinates": [-85.23198, 42.010485]}, "record_timestamp": "2018-02-09T11:33:38.603-05:00"},{"datasetid": "us-zip-code-latitude-and-longitude@public", "recordid": "bfd9b665b18b6234596cee15f7aad4422b43dbd9", "fields": {"city": "Jackson", "zip": "49203", "dst": 1, "geopoint": [42.227536, -84.40913], "longitude": -84.40913, "state": "MI", "latitude": 42.227536, "timezone": -5}, "geometry": {"type": "Point", "coordinates": [-84.40913, 42.227536]}, "record_timestamp": "2018-02-09T11:33:38.603-05:00"},{"datasetid": "us-zip-code-latitude-and-longitude@public", "recordid": "09fca1eea94b6763d438cd18f5e3d702272e4881", "fields": {"city": "Tipton", "zip": "49287", "dst": 1, "geopoint": [42.035005, -84.09154], "longitude": -84.09154, "state": "MI", "latitude": 42.035005, "timezone": -5}, "geometry": {"type": "Point", "coordinates": [-84.09154, 42.035005]}, "record_timestamp": "2018-02-09T11:33:38.603-05:00"},{"datasetid": "us-zip-code-latitude-and-longitude@public", "recordid": "eb4108e6818d6b707342495c59b9c8664d1e580f", "fields": {"city": "Hamburg", "zip": "48139", "dst": 1, "geopoint": [42.449117, -83.80332], "longitude": -83.80332, "state": "MI", "latitude": 42.449117, "timezone": -5}, "geometry": {"type": "Point", "coordinates": [-83.80332, 42.449117]}, "record_timestamp": "2018-02-09T11:33:38.603-05:00"},{"datasetid": "us-zip-code-latitude-and-longitude@public", "recordid": "0123ef87307a42515ccb13eecc6c7669d3751848", "fields": {"city": "Midland", "zip": "48642", "dst": 1, "geopoint": [43.652404, -84.21671], "longitude": -84.21671, "state": "MI", "latitude": 43.652404, "timezone": -5}, "geometry": {"type": "Point", "coordinates": [-84.21671, 43.652404]}, "record_timestamp": "2018-02-09T11:33:38.603-05:00"},{"datasetid": "us-zip-code-latitude-and-longitude@public", "recordid": "d332fd93da938ea35bf60d4077c9aefc5f03f0b7", "fields": {"city": "Bronson", "zip": "49028", "dst": 1, "geopoint": [41.850631, -85.18987], "longitude": -85.18987, "state": "MI", "latitude": 41.850631, "timezone": -5}, "geometry": {"type": "Point", "coordinates": [-85.18987, 41.850631]}, "record_timestamp": "2018-02-09T11:33:38.603-05:00"},{"datasetid": "us-zip-code-latitude-and-longitude@public", "recordid": "42331692a8de28c90c3973baf391055d1e1ce283", "fields": {"city": "Naubinway", "zip": "49762", "dst": 1, "geopoint": [46.142357, -85.29284], "longitude": -85.29284, "state": "MI", "latitude": 46.142357, "timezone": -5}, "geometry": {"type": "Point", "coordinates": [-85.29284, 46.142357]}, "record_timestamp": "2018-02-09T11:33:38.603-05:00"},{"datasetid": "us-zip-code-latitude-and-longitude@public", "recordid": "efdcf8e4a11ad91710124624d177016e89f8a516", "fields": {"city": "Prescott", "zip": "48756", "dst": 1, "geopoint": [44.206123, -83.99306], "longitude": -83.99306, "state": "MI", "latitude": 44.206123, "timezone": -5}, "geometry": {"type": "Point", "coordinates": [-83.99306, 44.206123]}, "record_timestamp": "2018-02-09T11:33:38.603-05:00"},{"datasetid": "us-zip-code-latitude-and-longitude@public", "recordid": "74051a9c64990ac0b3856375b5b24d3f1a755fb5", "fields": {"city": "Greenwood", "zip": "49758", "dst": 1, "geopoint": [44.682965, -84.287698], "longitude": -84.287698, "state": "MI", "latitude": 44.682965, "timezone": -5}, "geometry": {"type": "Point", "coordinates": [-84.287698, 44.682965]}, "record_timestamp": "2018-02-09T11:33:38.603-05:00"},{"datasetid": "us-zip-code-latitude-and-longitude@public", "recordid": "496258646b18c50fb9b27848e41626e787ed0fa0", "fields": {"city": "Frankenmuth", "zip": "48787", "dst": 1, "geopoint": [43.334958, -83.749418], "longitude": -83.749418, "state": "MI", "latitude": 43.334958, "timezone": -5}, "geometry": {"type": "Point", "coordinates": [-83.749418, 43.334958]}, "record_timestamp": "2018-02-09T11:33:38.603-05:00"},{"datasetid": "us-zip-code-latitude-and-longitude@public", "recordid": "a77fe7b3cf2e42c38c064bc3e94df51bde9bb720", "fields": {"city": "Fenwick", "zip": "48834", "dst": 1, "geopoint": [43.141649, -85.04948], "longitude": -85.04948, "state": "MI", "latitude": 43.141649, "timezone": -5}, "geometry": {"type": "Point", "coordinates": [-85.04948, 43.141649]}, "record_timestamp": "2018-02-09T11:33:38.603-05:00"},{"datasetid": "us-zip-code-latitude-and-longitude@public", "recordid": "7309d31a0d3d15660b443faf91acfd30a1a57694", "fields": {"city": "Inkster", "zip": "48141", "dst": 1, "geopoint": [42.292582, -83.31414], "longitude": -83.31414, "state": "MI", "latitude": 42.292582, "timezone": -5}, "geometry": {"type": "Point", "coordinates": [-83.31414, 42.292582]}, "record_timestamp": "2018-02-09T11:33:38.603-05:00"},{"datasetid": "us-zip-code-latitude-and-longitude@public", "recordid": "97de48ab6b9d7d2115cb933da7bc322a63a85771", "fields": {"city": "Novi", "zip": "48377", "dst": 1, "geopoint": [42.511766, -83.47314], "longitude": -83.47314, "state": "MI", "latitude": 42.511766, "timezone": -5}, "geometry": {"type": "Point", "coordinates": [-83.47314, 42.511766]}, "record_timestamp": "2018-02-09T11:33:38.603-05:00"},{"datasetid": "us-zip-code-latitude-and-longitude@public", "recordid": "51948ec57d2f97dedc7dc1c9f394342d8f00ee9d", "fields": {"city": "Walled Lake", "zip": "48391", "dst": 1, "geopoint": [42.660091, -83.3863], "longitude": -83.3863, "state": "MI", "latitude": 42.660091, "timezone": -5}, "geometry": {"type": "Point", "coordinates": [-83.3863, 42.660091]}, "record_timestamp": "2018-02-09T11:33:38.603-05:00"},{"datasetid": "us-zip-code-latitude-and-longitude@public", "recordid": "a51def2c9fa171e3368de802be03abad7e4ade70", "fields": {"city": "Otter Lake", "zip": "48464", "dst": 1, "geopoint": [43.219132, -83.42227], "longitude": -83.42227, "state": "MI", "latitude": 43.219132, "timezone": -5}, "geometry": {"type": "Point", "coordinates": [-83.42227, 43.219132]}, "record_timestamp": "2018-02-09T11:33:38.603-05:00"},{"datasetid": "us-zip-code-latitude-and-longitude@public", "recordid": "832ce70deb17c7c2ca43d007fcd0aa45e97e3338", "fields": {"city": "Linwood", "zip": "48634", "dst": 1, "geopoint": [43.748816, -84.01217], "longitude": -84.01217, "state": "MI", "latitude": 43.748816, "timezone": -5}, "geometry": {"type": "Point", "coordinates": [-84.01217, 43.748816]}, "record_timestamp": "2018-02-09T11:33:38.603-05:00"},{"datasetid": "us-zip-code-latitude-and-longitude@public", "recordid": "ca30ec3036bb57b62bada6f2cd58fe0470da63a7", "fields": {"city": "Mikado", "zip": "48745", "dst": 1, "geopoint": [44.580133000000004, -83.49441], "longitude": -83.49441, "state": "MI", "latitude": 44.580133000000004, "timezone": -5}, "geometry": {"type": "Point", "coordinates": [-83.49441, 44.580133000000004]}, "record_timestamp": "2018-02-09T11:33:38.603-05:00"},{"datasetid": "us-zip-code-latitude-and-longitude@public", "recordid": "8cce36337d568e2c1113ad8ba376ab5edae3e62f", "fields": {"city": "Fremont", "zip": "49412", "dst": 1, "geopoint": [43.464943, -85.95005], "longitude": -85.95005, "state": "MI", "latitude": 43.464943, "timezone": -5}, "geometry": {"type": "Point", "coordinates": [-85.95005, 43.464943]}, "record_timestamp": "2018-02-09T11:33:38.603-05:00"},{"datasetid": "us-zip-code-latitude-and-longitude@public", "recordid": "61baf647deb2f9ff0ebe0082424b1e7e7d078a56", "fields": {"city": "Grand Marais", "zip": "49839", "dst": 1, "geopoint": [46.655567, -85.95837], "longitude": -85.95837, "state": "MI", "latitude": 46.655567, "timezone": -5}, "geometry": {"type": "Point", "coordinates": [-85.95837, 46.655567]}, "record_timestamp": "2018-02-09T11:33:38.603-05:00"},{"datasetid": "us-zip-code-latitude-and-longitude@public", "recordid": "7166e8ffebca29e5b0bc6f1ae134e5fb2aee165e", "fields": {"city": "Richmond", "zip": "48062", "dst": 1, "geopoint": [42.829226, -82.77538], "longitude": -82.77538, "state": "MI", "latitude": 42.829226, "timezone": -5}, "geometry": {"type": "Point", "coordinates": [-82.77538, 42.829226]}, "record_timestamp": "2018-02-09T11:33:38.603-05:00"},{"datasetid": "us-zip-code-latitude-and-longitude@public", "recordid": "d9061422c08ab3601618ef8ad2e7b7b409022797", "fields": {"city": "Coloma", "zip": "49038", "dst": 1, "geopoint": [42.209307, -86.3337], "longitude": -86.3337, "state": "MI", "latitude": 42.209307, "timezone": -5}, "geometry": {"type": "Point", "coordinates": [-86.3337, 42.209307]}, "record_timestamp": "2018-02-09T11:33:38.603-05:00"},{"datasetid": "us-zip-code-latitude-and-longitude@public", "recordid": "cbf240fdbfa11b3d095e3ebe29d06496f3c45cbc", "fields": {"city": "Nisula", "zip": "49952", "dst": 1, "geopoint": [46.7596, -88.84928], "longitude": -88.84928, "state": "MI", "latitude": 46.7596, "timezone": -5}, "geometry": {"type": "Point", "coordinates": [-88.84928, 46.7596]}, "record_timestamp": "2018-02-09T11:33:38.603-05:00"},{"datasetid": "us-zip-code-latitude-and-longitude@public", "recordid": "c4cb7f68ca0ddead84f703a16b757cc2dbb1da7d", "fields": {"city": "Detroit", "zip": "48278", "dst": 1, "geopoint": [42.239933, -83.150823], "longitude": -83.150823, "state": "MI", "latitude": 42.239933, "timezone": -5}, "geometry": {"type": "Point", "coordinates": [-83.150823, 42.239933]}, "record_timestamp": "2018-02-09T11:33:38.603-05:00"},{"datasetid": "us-zip-code-latitude-and-longitude@public", "recordid": "3d9e4f87db52d985128a37a1ef2d0a7907d37c6f", "fields": {"city": "Wixom", "zip": "48393", "dst": 1, "geopoint": [42.532251, -83.53378], "longitude": -83.53378, "state": "MI", "latitude": 42.532251, "timezone": -5}, "geometry": {"type": "Point", "coordinates": [-83.53378, 42.532251]}, "record_timestamp": "2018-02-09T11:33:38.603-05:00"},{"datasetid": "us-zip-code-latitude-and-longitude@public", "recordid": "8be271cc58bd90a79e23f439c97b140e03a66f24", "fields": {"city": "Lyons", "zip": "48851", "dst": 1, "geopoint": [42.962965, -84.94611], "longitude": -84.94611, "state": "MI", "latitude": 42.962965, "timezone": -5}, "geometry": {"type": "Point", "coordinates": [-84.94611, 42.962965]}, "record_timestamp": "2018-02-09T11:33:38.603-05:00"},{"datasetid": "us-zip-code-latitude-and-longitude@public", "recordid": "47df2a918a758022aa91b5a2a8538d1c073abb1a", "fields": {"city": "Benton Harbor", "zip": "49022", "dst": 1, "geopoint": [42.10809, -86.41801], "longitude": -86.41801, "state": "MI", "latitude": 42.10809, "timezone": -5}, "geometry": {"type": "Point", "coordinates": [-86.41801, 42.10809]}, "record_timestamp": "2018-02-09T11:33:38.603-05:00"},{"datasetid": "us-zip-code-latitude-and-longitude@public", "recordid": "0c23322bdf485046a97996984ea6a3aa57f8f3fb", "fields": {"city": "Warren", "zip": "48089", "dst": 1, "geopoint": [42.467086, -82.99866], "longitude": -82.99866, "state": "MI", "latitude": 42.467086, "timezone": -5}, "geometry": {"type": "Point", "coordinates": [-82.99866, 42.467086]}, "record_timestamp": "2018-02-09T11:33:38.603-05:00"},{"datasetid": "us-zip-code-latitude-and-longitude@public", "recordid": "2623459541b5040d05360f05b35e28cfb4fe848e", "fields": {"city": "Otsego", "zip": "49078", "dst": 1, "geopoint": [42.459989, -85.71069], "longitude": -85.71069, "state": "MI", "latitude": 42.459989, "timezone": -5}, "geometry": {"type": "Point", "coordinates": [-85.71069, 42.459989]}, "record_timestamp": "2018-02-09T11:33:38.603-05:00"},{"datasetid": "us-zip-code-latitude-and-longitude@public", "recordid": "e1924e084a840e4264872e8839f77f8b9c1e568f", "fields": {"city": "Union City", "zip": "49094", "dst": 1, "geopoint": [42.06137, -85.11971], "longitude": -85.11971, "state": "MI", "latitude": 42.06137, "timezone": -5}, "geometry": {"type": "Point", "coordinates": [-85.11971, 42.06137]}, "record_timestamp": "2018-02-09T11:33:38.603-05:00"},{"datasetid": "us-zip-code-latitude-and-longitude@public", "recordid": "11131e70b77b5f957753d5665a63bdc0b79df007", "fields": {"city": "Chelsea", "zip": "48118", "dst": 1, "geopoint": [42.316922, -84.03445], "longitude": -84.03445, "state": "MI", "latitude": 42.316922, "timezone": -5}, "geometry": {"type": "Point", "coordinates": [-84.03445, 42.316922]}, "record_timestamp": "2018-02-09T11:33:38.603-05:00"},{"datasetid": "us-zip-code-latitude-and-longitude@public", "recordid": "83da4cc5cb20b9f8c55d4d82ed6f5e8fc568e932", "fields": {"city": "Lansing", "zip": "48918", "dst": 1, "geopoint": [42.599184, -84.371973], "longitude": -84.371973, "state": "MI", "latitude": 42.599184, "timezone": -5}, "geometry": {"type": "Point", "coordinates": [-84.371973, 42.599184]}, "record_timestamp": "2018-02-09T11:33:38.603-05:00"},{"datasetid": "us-zip-code-latitude-and-longitude@public", "recordid": "6336510c61dbb9b91c99898c19948e36b5aebe30", "fields": {"city": "Thompsonville", "zip": "49683", "dst": 1, "geopoint": [44.531456, -85.9334], "longitude": -85.9334, "state": "MI", "latitude": 44.531456, "timezone": -5}, "geometry": {"type": "Point", "coordinates": [-85.9334, 44.531456]}, "record_timestamp": "2018-02-09T11:33:38.603-05:00"},{"datasetid": "us-zip-code-latitude-and-longitude@public", "recordid": "eb8f8f49d151fe6411311a47311d14991c5bfbdb", "fields": {"city": "Detroit", "zip": "48275", "dst": 1, "geopoint": [42.239933, -83.150823], "longitude": -83.150823, "state": "MI", "latitude": 42.239933, "timezone": -5}, "geometry": {"type": "Point", "coordinates": [-83.150823, 42.239933]}, "record_timestamp": "2018-02-09T11:33:38.603-05:00"},{"datasetid": "us-zip-code-latitude-and-longitude@public", "recordid": "836d41c23a5bf711614004516ab4063ea4fc7c85", "fields": {"city": "Reese", "zip": "48757", "dst": 1, "geopoint": [43.462775, -83.68564], "longitude": -83.68564, "state": "MI", "latitude": 43.462775, "timezone": -5}, "geometry": {"type": "Point", "coordinates": [-83.68564, 43.462775]}, "record_timestamp": "2018-02-09T11:33:38.603-05:00"},{"datasetid": "us-zip-code-latitude-and-longitude@public", "recordid": "2d63af53c2d97db5e7b93690b536c311ceaf5ee3", "fields": {"city": "Morenci", "zip": "49256", "dst": 1, "geopoint": [41.746349, -84.21557], "longitude": -84.21557, "state": "MI", "latitude": 41.746349, "timezone": -5}, "geometry": {"type": "Point", "coordinates": [-84.21557, 41.746349]}, "record_timestamp": "2018-02-09T11:33:38.603-05:00"},{"datasetid": "us-zip-code-latitude-and-longitude@public", "recordid": "ebc21b2ca4b570b6b8437d88fd02f3791e249a83", "fields": {"city": "Grand Rapids", "zip": "49509", "dst": 1, "geopoint": [42.905877, -85.70392], "longitude": -85.70392, "state": "MI", "latitude": 42.905877, "timezone": -5}, "geometry": {"type": "Point", "coordinates": [-85.70392, 42.905877]}, "record_timestamp": "2018-02-09T11:33:38.603-05:00"},{"datasetid": "us-zip-code-latitude-and-longitude@public", "recordid": "2db20e180134c6b4979afdeab61133299bab2bb7", "fields": {"city": "Bark River", "zip": "49807", "dst": 1, "geopoint": [45.770006, -87.34617], "longitude": -87.34617, "state": "MI", "latitude": 45.770006, "timezone": -6}, "geometry": {"type": "Point", "coordinates": [-87.34617, 45.770006]}, "record_timestamp": "2018-02-09T11:33:38.603-05:00"},{"datasetid": "us-zip-code-latitude-and-longitude@public", "recordid": "4c098518c2cd748b2ad7d700862d892678df3064", "fields": {"city": "Rochester", "zip": "48309", "dst": 1, "geopoint": [42.662732, -83.18111], "longitude": -83.18111, "state": "MI", "latitude": 42.662732, "timezone": -5}, "geometry": {"type": "Point", "coordinates": [-83.18111, 42.662732]}, "record_timestamp": "2018-02-09T11:33:38.603-05:00"},{"datasetid": "us-zip-code-latitude-and-longitude@public", "recordid": "0ca3795c2d28409f1c0d0a601e5a28139b0795c0", "fields": {"city": "Monroe", "zip": "48162", "dst": 1, "geopoint": [41.940898, -83.38515], "longitude": -83.38515, "state": "MI", "latitude": 41.940898, "timezone": -5}, "geometry": {"type": "Point", "coordinates": [-83.38515, 41.940898]}, "record_timestamp": "2018-02-09T11:33:38.603-05:00"},{"datasetid": "us-zip-code-latitude-and-longitude@public", "recordid": "030c1e603a4e7884901ddd61adc7aa693101d6ea", "fields": {"city": "Brimley", "zip": "49778", "dst": 1, "geopoint": [46.410777, -84.336519], "longitude": -84.336519, "state": "MI", "latitude": 46.410777, "timezone": -5}, "geometry": {"type": "Point", "coordinates": [-84.336519, 46.410777]}, "record_timestamp": "2018-02-09T11:33:38.603-05:00"},{"datasetid": "us-zip-code-latitude-and-longitude@public", "recordid": "dafd1406fa940b43172581ed550a9f33b40f42f9", "fields": {"city": "Long Lake", "zip": "48743", "dst": 1, "geopoint": [44.442563, -83.87538], "longitude": -83.87538, "state": "MI", "latitude": 44.442563, "timezone": -5}, "geometry": {"type": "Point", "coordinates": [-83.87538, 44.442563]}, "record_timestamp": "2018-02-09T11:33:38.603-05:00"},{"datasetid": "us-zip-code-latitude-and-longitude@public", "recordid": "60a6420f47993c7565968aa03aa544e1a222f516", "fields": {"city": "Howell", "zip": "48855", "dst": 1, "geopoint": [42.678059, -83.915592], "longitude": -83.915592, "state": "MI", "latitude": 42.678059, "timezone": -5}, "geometry": {"type": "Point", "coordinates": [-83.915592, 42.678059]}, "record_timestamp": "2018-02-09T11:33:38.603-05:00"},{"datasetid": "us-zip-code-latitude-and-longitude@public", "recordid": "8e0eb691ad982f302ca218e267e90beb3ffacbe2", "fields": {"city": "Lachine", "zip": "49753", "dst": 1, "geopoint": [44.99718, -83.7918], "longitude": -83.7918, "state": "MI", "latitude": 44.99718, "timezone": -5}, "geometry": {"type": "Point", "coordinates": [-83.7918, 44.99718]}, "record_timestamp": "2018-02-09T11:33:38.603-05:00"},{"datasetid": "us-zip-code-latitude-and-longitude@public", "recordid": "6d8c91f80914dd9ecedc10cff259e0aca28d3b1f", "fields": {"city": "Elsie", "zip": "48831", "dst": 1, "geopoint": [43.098253, -84.37722], "longitude": -84.37722, "state": "MI", "latitude": 43.098253, "timezone": -5}, "geometry": {"type": "Point", "coordinates": [-84.37722, 43.098253]}, "record_timestamp": "2018-02-09T11:33:38.603-05:00"},{"datasetid": "us-zip-code-latitude-and-longitude@public", "recordid": "d89f16356199aed786b992c48c9e6013059027fb", "fields": {"city": "Hawks", "zip": "49743", "dst": 1, "geopoint": [45.282088, -83.93526], "longitude": -83.93526, "state": "MI", "latitude": 45.282088, "timezone": -5}, "geometry": {"type": "Point", "coordinates": [-83.93526, 45.282088]}, "record_timestamp": "2018-02-09T11:33:38.603-05:00"},{"datasetid": "us-zip-code-latitude-and-longitude@public", "recordid": "d2f8f5b30d785ad287df27a42ace859244b527cb", "fields": {"city": "Detroit", "zip": "48217", "dst": 1, "geopoint": [42.277738, -83.1552], "longitude": -83.1552, "state": "MI", "latitude": 42.277738, "timezone": -5}, "geometry": {"type": "Point", "coordinates": [-83.1552, 42.277738]}, "record_timestamp": "2018-02-09T11:33:38.603-05:00"},{"datasetid": "us-zip-code-latitude-and-longitude@public", "recordid": "775ce743cfb5121f0a718f5351055ae58459e55f", "fields": {"city": "Wolverine", "zip": "49799", "dst": 1, "geopoint": [45.268255, -84.60141], "longitude": -84.60141, "state": "MI", "latitude": 45.268255, "timezone": -5}, "geometry": {"type": "Point", "coordinates": [-84.60141, 45.268255]}, "record_timestamp": "2018-02-09T11:33:38.603-05:00"},{"datasetid": "us-zip-code-latitude-and-longitude@public", "recordid": "d251842636b296a36793b8e0c16d618f3bd4d9cb", "fields": {"city": "Gaylord", "zip": "49735", "dst": 1, "geopoint": [44.989608, -84.67492], "longitude": -84.67492, "state": "MI", "latitude": 44.989608, "timezone": -5}, "geometry": {"type": "Point", "coordinates": [-84.67492, 44.989608]}, "record_timestamp": "2018-02-09T11:33:38.603-05:00"},{"datasetid": "us-zip-code-latitude-and-longitude@public", "recordid": "d8ebee6d629943532c1fc1774db0ceabf78e5705", "fields": {"city": "Royal Oak", "zip": "48073", "dst": 1, "geopoint": [42.518635, -83.16357], "longitude": -83.16357, "state": "MI", "latitude": 42.518635, "timezone": -5}, "geometry": {"type": "Point", "coordinates": [-83.16357, 42.518635]}, "record_timestamp": "2018-02-09T11:33:38.603-05:00"},{"datasetid": "us-zip-code-latitude-and-longitude@public", "recordid": "b559d1e69295f8776d4c8409b842cebaca78cd01", "fields": {"city": "Auburn", "zip": "48611", "dst": 1, "geopoint": [43.617796, -84.07918], "longitude": -84.07918, "state": "MI", "latitude": 43.617796, "timezone": -5}, "geometry": {"type": "Point", "coordinates": [-84.07918, 43.617796]}, "record_timestamp": "2018-02-09T11:33:38.603-05:00"},{"datasetid": "us-zip-code-latitude-and-longitude@public", "recordid": "c43663308dea96ca5abc4e58de2a6700c94b6f86", "fields": {"city": "Holt", "zip": "48842", "dst": 1, "geopoint": [42.639235, -84.52702], "longitude": -84.52702, "state": "MI", "latitude": 42.639235, "timezone": -5}, "geometry": {"type": "Point", "coordinates": [-84.52702, 42.639235]}, "record_timestamp": "2018-02-09T11:33:38.603-05:00"},{"datasetid": "us-zip-code-latitude-and-longitude@public", "recordid": "eb54fd5e4a73f551825bf076f8210b25f59b772f", "fields": {"city": "Holland", "zip": "49423", "dst": 1, "geopoint": [42.765918, -86.10544], "longitude": -86.10544, "state": "MI", "latitude": 42.765918, "timezone": -5}, "geometry": {"type": "Point", "coordinates": [-86.10544, 42.765918]}, "record_timestamp": "2018-02-09T11:33:38.603-05:00"},{"datasetid": "us-zip-code-latitude-and-longitude@public", "recordid": "93e37570103d1b48d1cf950572781a2ab42bb27c", "fields": {"city": "Daggett", "zip": "49821", "dst": 1, "geopoint": [45.521574, -87.61977], "longitude": -87.61977, "state": "MI", "latitude": 45.521574, "timezone": -6}, "geometry": {"type": "Point", "coordinates": [-87.61977, 45.521574]}, "record_timestamp": "2018-02-09T11:33:38.603-05:00"},{"datasetid": "us-zip-code-latitude-and-longitude@public", "recordid": "5c4d1f24927dd15d07738e5f042ef9463660c47b", "fields": {"city": "Douglas", "zip": "49406", "dst": 1, "geopoint": [42.643315, -86.20404], "longitude": -86.20404, "state": "MI", "latitude": 42.643315, "timezone": -5}, "geometry": {"type": "Point", "coordinates": [-86.20404, 42.643315]}, "record_timestamp": "2018-02-09T11:33:38.603-05:00"},{"datasetid": "us-zip-code-latitude-and-longitude@public", "recordid": "28d5cf92423791af03eb1a5b6917a76d9eee4add", "fields": {"city": "Lincoln Park", "zip": "48146", "dst": 1, "geopoint": [42.243488, -83.18097], "longitude": -83.18097, "state": "MI", "latitude": 42.243488, "timezone": -5}, "geometry": {"type": "Point", "coordinates": [-83.18097, 42.243488]}, "record_timestamp": "2018-02-09T11:33:38.603-05:00"},{"datasetid": "us-zip-code-latitude-and-longitude@public", "recordid": "4f41466d5a2164f9589ce72625414c0c8dcaeb9e", "fields": {"city": "Warren", "zip": "48092", "dst": 1, "geopoint": [42.511293, -83.0597], "longitude": -83.0597, "state": "MI", "latitude": 42.511293, "timezone": -5}, "geometry": {"type": "Point", "coordinates": [-83.0597, 42.511293]}, "record_timestamp": "2018-02-09T11:33:38.603-05:00"},{"datasetid": "us-zip-code-latitude-and-longitude@public", "recordid": "40f651387b66be1f4bcf2ff30b63132dd8013b82", "fields": {"city": "Onsted", "zip": "49265", "dst": 1, "geopoint": [42.020199, -84.16796], "longitude": -84.16796, "state": "MI", "latitude": 42.020199, "timezone": -5}, "geometry": {"type": "Point", "coordinates": [-84.16796, 42.020199]}, "record_timestamp": "2018-02-09T11:33:38.603-05:00"},{"datasetid": "us-zip-code-latitude-and-longitude@public", "recordid": "a3a193dacfa083c9af0e39b476b50999ce96dfbd", "fields": {"city": "Hillman", "zip": "49746", "dst": 1, "geopoint": [45.068394, -83.96071], "longitude": -83.96071, "state": "MI", "latitude": 45.068394, "timezone": -5}, "geometry": {"type": "Point", "coordinates": [-83.96071, 45.068394]}, "record_timestamp": "2018-02-09T11:33:38.603-05:00"},{"datasetid": "us-zip-code-latitude-and-longitude@public", "recordid": "260d7c450a67830a67c7a82f51a3bc974770748e", "fields": {"city": "Grand Rapids", "zip": "49599", "dst": 1, "geopoint": [43.031413, -85.550267], "longitude": -85.550267, "state": "MI", "latitude": 43.031413, "timezone": -5}, "geometry": {"type": "Point", "coordinates": [-85.550267, 43.031413]}, "record_timestamp": "2018-02-09T11:33:38.603-05:00"},{"datasetid": "us-zip-code-latitude-and-longitude@public", "recordid": "02e611cfc3e6693d748343b17a10cfe537c0cac7", "fields": {"city": "Laingsburg", "zip": "48848", "dst": 1, "geopoint": [42.884921, -84.3569], "longitude": -84.3569, "state": "MI", "latitude": 42.884921, "timezone": -5}, "geometry": {"type": "Point", "coordinates": [-84.3569, 42.884921]}, "record_timestamp": "2018-02-09T11:33:38.603-05:00"},{"datasetid": "us-zip-code-latitude-and-longitude@public", "recordid": "83ee2dadacb1c8f3267fbee68a96eecbc1dac9d5", "fields": {"city": "Boyne City", "zip": "49712", "dst": 1, "geopoint": [45.215511, -85.00995], "longitude": -85.00995, "state": "MI", "latitude": 45.215511, "timezone": -5}, "geometry": {"type": "Point", "coordinates": [-85.00995, 45.215511]}, "record_timestamp": "2018-02-09T11:33:38.603-05:00"},{"datasetid": "us-zip-code-latitude-and-longitude@public", "recordid": "2cb69254e4ac9f0179330bcc503dd9427956cbe6", "fields": {"city": "Rudyard", "zip": "49780", "dst": 1, "geopoint": [46.204512, -84.73671], "longitude": -84.73671, "state": "MI", "latitude": 46.204512, "timezone": -5}, "geometry": {"type": "Point", "coordinates": [-84.73671, 46.204512]}, "record_timestamp": "2018-02-09T11:33:38.603-05:00"},{"datasetid": "us-zip-code-latitude-and-longitude@public", "recordid": "94f957811e0a4ffead5c094caa164f51e72baba3", "fields": {"city": "Buchanan", "zip": "49107", "dst": 1, "geopoint": [41.830011999999996, -86.38349], "longitude": -86.38349, "state": "MI", "latitude": 41.830011999999996, "timezone": -5}, "geometry": {"type": "Point", "coordinates": [-86.38349, 41.830011999999996]}, "record_timestamp": "2018-02-09T11:33:38.603-05:00"},{"datasetid": "us-zip-code-latitude-and-longitude@public", "recordid": "e0a2a67c762132298a72e8473eab94c0b85e55ce", "fields": {"city": "Honor", "zip": "49640", "dst": 1, "geopoint": [44.701761, -86.05033], "longitude": -86.05033, "state": "MI", "latitude": 44.701761, "timezone": -5}, "geometry": {"type": "Point", "coordinates": [-86.05033, 44.701761]}, "record_timestamp": "2018-02-09T11:33:38.603-05:00"},{"datasetid": "us-zip-code-latitude-and-longitude@public", "recordid": "dcbc3886c3e1433d07c23ca2fdf08ee7c2ed943c", "fields": {"city": "Southfield", "zip": "48076", "dst": 1, "geopoint": [42.499335, -83.22829], "longitude": -83.22829, "state": "MI", "latitude": 42.499335, "timezone": -5}, "geometry": {"type": "Point", "coordinates": [-83.22829, 42.499335]}, "record_timestamp": "2018-02-09T11:33:38.603-05:00"},{"datasetid": "us-zip-code-latitude-and-longitude@public", "recordid": "b963a479564447b72d78277ae57998e734b48490", "fields": {"city": "Smiths Creek", "zip": "48074", "dst": 1, "geopoint": [42.948521, -82.57049], "longitude": -82.57049, "state": "MI", "latitude": 42.948521, "timezone": -5}, "geometry": {"type": "Point", "coordinates": [-82.57049, 42.948521]}, "record_timestamp": "2018-02-09T11:33:38.603-05:00"},{"datasetid": "us-zip-code-latitude-and-longitude@public", "recordid": "6a03c189390c39ddf6e2110702657c43e2fafed1", "fields": {"city": "Saint Ignace", "zip": "49781", "dst": 1, "geopoint": [45.923952, -84.7255], "longitude": -84.7255, "state": "MI", "latitude": 45.923952, "timezone": -5}, "geometry": {"type": "Point", "coordinates": [-84.7255, 45.923952]}, "record_timestamp": "2018-02-09T11:33:38.603-05:00"},{"datasetid": "us-zip-code-latitude-and-longitude@public", "recordid": "0dda1720f0739a5dcc09687d86a803d2f2e6c8c8", "fields": {"city": "Kincheloe", "zip": "49786", "dst": 1, "geopoint": [46.410777, -84.336519], "longitude": -84.336519, "state": "MI", "latitude": 46.410777, "timezone": -5}, "geometry": {"type": "Point", "coordinates": [-84.336519, 46.410777]}, "record_timestamp": "2018-02-09T11:33:38.603-05:00"},{"datasetid": "us-zip-code-latitude-and-longitude@public", "recordid": "210d39b95904a8900fc48e2eec6fe305f6ba6639", "fields": {"city": "Mason", "zip": "48854", "dst": 1, "geopoint": [42.582902, -84.44738], "longitude": -84.44738, "state": "MI", "latitude": 42.582902, "timezone": -5}, "geometry": {"type": "Point", "coordinates": [-84.44738, 42.582902]}, "record_timestamp": "2018-02-09T11:33:38.603-05:00"},{"datasetid": "us-zip-code-latitude-and-longitude@public", "recordid": "018fc0d0f33ab4d1e68b17f15d9f419150740432", "fields": {"city": "Manistique", "zip": "49854", "dst": 1, "geopoint": [46.042121, -86.33946], "longitude": -86.33946, "state": "MI", "latitude": 46.042121, "timezone": -5}, "geometry": {"type": "Point", "coordinates": [-86.33946, 46.042121]}, "record_timestamp": "2018-02-09T11:33:38.603-05:00"},{"datasetid": "us-zip-code-latitude-and-longitude@public", "recordid": "25aefcb87c01166e2b31dd3b1b9905d6c7dd4708", "fields": {"city": "Felch", "zip": "49831", "dst": 1, "geopoint": [45.994849, -87.81615], "longitude": -87.81615, "state": "MI", "latitude": 45.994849, "timezone": -6}, "geometry": {"type": "Point", "coordinates": [-87.81615, 45.994849]}, "record_timestamp": "2018-02-09T11:33:38.603-05:00"},{"datasetid": "us-zip-code-latitude-and-longitude@public", "recordid": "3e89b4e42329351e8a2d7998509fedc85e4a05ea", "fields": {"city": "Saginaw", "zip": "48602", "dst": 1, "geopoint": [43.423925, -83.97142], "longitude": -83.97142, "state": "MI", "latitude": 43.423925, "timezone": -5}, "geometry": {"type": "Point", "coordinates": [-83.97142, 43.423925]}, "record_timestamp": "2018-02-09T11:33:38.603-05:00"},{"datasetid": "us-zip-code-latitude-and-longitude@public", "recordid": "8b6b0893aed4007b76e46d5e78719e62f6435872", "fields": {"city": "Harrison Township", "zip": "48045", "dst": 1, "geopoint": [42.582961, -82.83063], "longitude": -82.83063, "state": "MI", "latitude": 42.582961, "timezone": -5}, "geometry": {"type": "Point", "coordinates": [-82.83063, 42.582961]}, "record_timestamp": "2018-02-09T11:33:38.603-05:00"},{"datasetid": "us-zip-code-latitude-and-longitude@public", "recordid": "856d2f4278f58e5a00662a44872e61832965b1a6", "fields": {"city": "Detroit", "zip": "48221", "dst": 1, "geopoint": [42.426786, -83.14969], "longitude": -83.14969, "state": "MI", "latitude": 42.426786, "timezone": -5}, "geometry": {"type": "Point", "coordinates": [-83.14969, 42.426786]}, "record_timestamp": "2018-02-09T11:33:38.603-05:00"},{"datasetid": "us-zip-code-latitude-and-longitude@public", "recordid": "764cb62c8b2b493466b9528182af4d7173f85e45", "fields": {"city": "Saranac", "zip": "48881", "dst": 1, "geopoint": [42.929829, -85.20938], "longitude": -85.20938, "state": "MI", "latitude": 42.929829, "timezone": -5}, "geometry": {"type": "Point", "coordinates": [-85.20938, 42.929829]}, "record_timestamp": "2018-02-09T11:33:38.603-05:00"},{"datasetid": "us-zip-code-latitude-and-longitude@public", "recordid": "f6cfbf766bd972224503d57d3637f82df76d2e85", "fields": {"city": "Nottawa", "zip": "49075", "dst": 1, "geopoint": [41.916374, -85.45029], "longitude": -85.45029, "state": "MI", "latitude": 41.916374, "timezone": -5}, "geometry": {"type": "Point", "coordinates": [-85.45029, 41.916374]}, "record_timestamp": "2018-02-09T11:33:38.603-05:00"},{"datasetid": "us-zip-code-latitude-and-longitude@public", "recordid": "1ecc3ab7058471718e39bec39ab11b54f8ac8e76", "fields": {"city": "Leonidas", "zip": "49066", "dst": 1, "geopoint": [42.037422, -85.35683], "longitude": -85.35683, "state": "MI", "latitude": 42.037422, "timezone": -5}, "geometry": {"type": "Point", "coordinates": [-85.35683, 42.037422]}, "record_timestamp": "2018-02-09T11:33:38.603-05:00"},{"datasetid": "us-zip-code-latitude-and-longitude@public", "recordid": "0c1862a22aaa86e9acee7ccb57a71c8d674fcfa2", "fields": {"city": "Clarkston", "zip": "48346", "dst": 1, "geopoint": [42.720966, -83.4044], "longitude": -83.4044, "state": "MI", "latitude": 42.720966, "timezone": -5}, "geometry": {"type": "Point", "coordinates": [-83.4044, 42.720966]}, "record_timestamp": "2018-02-09T11:33:38.603-05:00"},{"datasetid": "us-zip-code-latitude-and-longitude@public", "recordid": "18654510f6c54a6d31f626c73c51508e25b5becb", "fields": {"city": "Martin", "zip": "49070", "dst": 1, "geopoint": [42.540492, -85.63686], "longitude": -85.63686, "state": "MI", "latitude": 42.540492, "timezone": -5}, "geometry": {"type": "Point", "coordinates": [-85.63686, 42.540492]}, "record_timestamp": "2018-02-09T11:33:38.603-05:00"},{"datasetid": "us-zip-code-latitude-and-longitude@public", "recordid": "d76cad9382dce3d074a69ebc03c15c248710ccd0", "fields": {"city": "Detroit", "zip": "48228", "dst": 1, "geopoint": [42.355437, -83.21722], "longitude": -83.21722, "state": "MI", "latitude": 42.355437, "timezone": -5}, "geometry": {"type": "Point", "coordinates": [-83.21722, 42.355437]}, "record_timestamp": "2018-02-09T11:33:38.603-05:00"},{"datasetid": "us-zip-code-latitude-and-longitude@public", "recordid": "f6db365c9d2e48c610edf17e3b0de3f2e46a553a", "fields": {"city": "Clinton", "zip": "48305", "dst": 1, "geopoint": [42.569278, -82.911243], "longitude": -82.911243, "state": "MI", "latitude": 42.569278, "timezone": -5}, "geometry": {"type": "Point", "coordinates": [-82.911243, 42.569278]}, "record_timestamp": "2018-02-09T11:33:38.603-05:00"},{"datasetid": "us-zip-code-latitude-and-longitude@public", "recordid": "c949ad09d1c651680033e1f944bd6b39d568a47c", "fields": {"city": "Copper City", "zip": "49917", "dst": 1, "geopoint": [47.283086, -88.38434], "longitude": -88.38434, "state": "MI", "latitude": 47.283086, "timezone": -5}, "geometry": {"type": "Point", "coordinates": [-88.38434, 47.283086]}, "record_timestamp": "2018-02-09T11:33:38.603-05:00"},{"datasetid": "us-zip-code-latitude-and-longitude@public", "recordid": "8f8da16bb1c97875983e6d96af4d32388d4a6afb", "fields": {"city": "Hillsdale", "zip": "49242", "dst": 1, "geopoint": [41.89958, -84.62624], "longitude": -84.62624, "state": "MI", "latitude": 41.89958, "timezone": -5}, "geometry": {"type": "Point", "coordinates": [-84.62624, 41.89958]}, "record_timestamp": "2018-02-09T11:33:38.603-05:00"},{"datasetid": "us-zip-code-latitude-and-longitude@public", "recordid": "065f4af67e38e2ed16c85e516e3926d194504f62", "fields": {"city": "Glen Arbor", "zip": "49564", "dst": 1, "geopoint": [44.933988, -85.950661], "longitude": -85.950661, "state": "MI", "latitude": 44.933988, "timezone": -5}, "geometry": {"type": "Point", "coordinates": [-85.950661, 44.933988]}, "record_timestamp": "2018-02-09T11:33:38.603-05:00"},{"datasetid": "us-zip-code-latitude-and-longitude@public", "recordid": "694e7b0f10d7ecca9a34b2593fe426e6051cdc7b", "fields": {"city": "Eckerman", "zip": "49728", "dst": 1, "geopoint": [46.355548, -84.99249], "longitude": -84.99249, "state": "MI", "latitude": 46.355548, "timezone": -5}, "geometry": {"type": "Point", "coordinates": [-84.99249, 46.355548]}, "record_timestamp": "2018-02-09T11:33:38.603-05:00"},{"datasetid": "us-zip-code-latitude-and-longitude@public", "recordid": "b13fd5a96e132764a767e3de5a4ad405e0b69ec7", "fields": {"city": "Lake Orion", "zip": "48359", "dst": 1, "geopoint": [42.722932, -83.28537], "longitude": -83.28537, "state": "MI", "latitude": 42.722932, "timezone": -5}, "geometry": {"type": "Point", "coordinates": [-83.28537, 42.722932]}, "record_timestamp": "2018-02-09T11:33:38.603-05:00"},{"datasetid": "us-zip-code-latitude-and-longitude@public", "recordid": "e5e63c3611a924f937dae0b05f84f973d0ea3e21", "fields": {"city": "Pinconning", "zip": "48650", "dst": 1, "geopoint": [43.851276, -83.97901], "longitude": -83.97901, "state": "MI", "latitude": 43.851276, "timezone": -5}, "geometry": {"type": "Point", "coordinates": [-83.97901, 43.851276]}, "record_timestamp": "2018-02-09T11:33:38.603-05:00"},{"datasetid": "us-zip-code-latitude-and-longitude@public", "recordid": "5a7bdc6f46f21917b7aab82c581ac5c9fa6537aa", "fields": {"city": "Mancelona", "zip": "49659", "dst": 1, "geopoint": [44.905437, -85.03401], "longitude": -85.03401, "state": "MI", "latitude": 44.905437, "timezone": -5}, "geometry": {"type": "Point", "coordinates": [-85.03401, 44.905437]}, "record_timestamp": "2018-02-09T11:33:38.603-05:00"},{"datasetid": "us-zip-code-latitude-and-longitude@public", "recordid": "b4b64e0300a063481a483dc403d4251e9f504d6b", "fields": {"city": "Mass City", "zip": "49948", "dst": 1, "geopoint": [46.730077, -89.02038], "longitude": -89.02038, "state": "MI", "latitude": 46.730077, "timezone": -5}, "geometry": {"type": "Point", "coordinates": [-89.02038, 46.730077]}, "record_timestamp": "2018-02-09T11:33:38.603-05:00"},{"datasetid": "us-zip-code-latitude-and-longitude@public", "recordid": "134cea862f7235e747c50f7f31be3f6facc4fc3b", "fields": {"city": "Garden City", "zip": "48136", "dst": 1, "geopoint": [42.239933, -83.150823], "longitude": -83.150823, "state": "MI", "latitude": 42.239933, "timezone": -5}, "geometry": {"type": "Point", "coordinates": [-83.150823, 42.239933]}, "record_timestamp": "2018-02-09T11:33:38.603-05:00"},{"datasetid": "us-zip-code-latitude-and-longitude@public", "recordid": "abe2c240fc9702119a185a552a9a1535d4ee0924", "fields": {"city": "Curtis", "zip": "49820", "dst": 1, "geopoint": [46.191702, -85.72148], "longitude": -85.72148, "state": "MI", "latitude": 46.191702, "timezone": -5}, "geometry": {"type": "Point", "coordinates": [-85.72148, 46.191702]}, "record_timestamp": "2018-02-09T11:33:38.603-05:00"},{"datasetid": "us-zip-code-latitude-and-longitude@public", "recordid": "73b8c5b157e4effb68dd362b959e7abce1664796", "fields": {"city": "Detroit", "zip": "48266", "dst": 1, "geopoint": [42.239933, -83.150823], "longitude": -83.150823, "state": "MI", "latitude": 42.239933, "timezone": -5}, "geometry": {"type": "Point", "coordinates": [-83.150823, 42.239933]}, "record_timestamp": "2018-02-09T11:33:38.603-05:00"},{"datasetid": "us-zip-code-latitude-and-longitude@public", "recordid": "0bf41c995f9d3d3a59b4aa035a53f34e73eeca14", "fields": {"city": "Vandalia", "zip": "49095", "dst": 1, "geopoint": [41.916613, -85.89022], "longitude": -85.89022, "state": "MI", "latitude": 41.916613, "timezone": -5}, "geometry": {"type": "Point", "coordinates": [-85.89022, 41.916613]}, "record_timestamp": "2018-02-09T11:33:38.603-05:00"},{"datasetid": "us-zip-code-latitude-and-longitude@public", "recordid": "5b2099ea76b4774e1afbb8b6c2296eeb054c41e9", "fields": {"city": "Channing", "zip": "49815", "dst": 1, "geopoint": [46.186913, -88.04546], "longitude": -88.04546, "state": "MI", "latitude": 46.186913, "timezone": -6}, "geometry": {"type": "Point", "coordinates": [-88.04546, 46.186913]}, "record_timestamp": "2018-02-09T11:33:38.603-05:00"},{"datasetid": "us-zip-code-latitude-and-longitude@public", "recordid": "1d38c9935649e2b83f0dc840dd78d0effae39d4e", "fields": {"city": "Salem", "zip": "48175", "dst": 1, "geopoint": [42.405636, -83.578088], "longitude": -83.578088, "state": "MI", "latitude": 42.405636, "timezone": -5}, "geometry": {"type": "Point", "coordinates": [-83.578088, 42.405636]}, "record_timestamp": "2018-02-09T11:33:38.603-05:00"},{"datasetid": "us-zip-code-latitude-and-longitude@public", "recordid": "fb8132d2caf269a2da3dc43fb298e8403e2c742e", "fields": {"city": "Wayne", "zip": "48184", "dst": 1, "geopoint": [42.276688, -83.3786], "longitude": -83.3786, "state": "MI", "latitude": 42.276688, "timezone": -5}, "geometry": {"type": "Point", "coordinates": [-83.3786, 42.276688]}, "record_timestamp": "2018-02-09T11:33:38.603-05:00"},{"datasetid": "us-zip-code-latitude-and-longitude@public", "recordid": "c75c2b420f7735b6d45c08de3c2a97b6f6e406e1", "fields": {"city": "Filion", "zip": "48432", "dst": 1, "geopoint": [43.89867, -83.01232], "longitude": -83.01232, "state": "MI", "latitude": 43.89867, "timezone": -5}, "geometry": {"type": "Point", "coordinates": [-83.01232, 43.89867]}, "record_timestamp": "2018-02-09T11:33:38.603-05:00"},{"datasetid": "us-zip-code-latitude-and-longitude@public", "recordid": "6ba15dca5b0f9962259dc2351c78fccc9f9448a0", "fields": {"city": "Ida", "zip": "48140", "dst": 1, "geopoint": [41.876895, -83.58184], "longitude": -83.58184, "state": "MI", "latitude": 41.876895, "timezone": -5}, "geometry": {"type": "Point", "coordinates": [-83.58184, 41.876895]}, "record_timestamp": "2018-02-09T11:33:38.603-05:00"},{"datasetid": "us-zip-code-latitude-and-longitude@public", "recordid": "08d2d1f2f3e3ff07a62fcda558f8f0c4009b7a8c", "fields": {"city": "Detroit", "zip": "48260", "dst": 1, "geopoint": [42.239933, -83.150823], "longitude": -83.150823, "state": "MI", "latitude": 42.239933, "timezone": -5}, "geometry": {"type": "Point", "coordinates": [-83.150823, 42.239933]}, "record_timestamp": "2018-02-09T11:33:38.603-05:00"},{"datasetid": "us-zip-code-latitude-and-longitude@public", "recordid": "9b7ee70128fb86cbbf8404c600c9fae8f3a29769", "fields": {"city": "Lyndon", "zip": "49137", "dst": 1, "geopoint": [42.424092, -84.102395], "longitude": -84.102395, "state": "MI", "latitude": 42.424092, "timezone": -5}, "geometry": {"type": "Point", "coordinates": [-84.102395, 42.424092]}, "record_timestamp": "2018-02-09T11:33:38.603-05:00"},{"datasetid": "us-zip-code-latitude-and-longitude@public", "recordid": "bcde0c271502b92e9c06eeb959fb0e364aa10dfe", "fields": {"city": "Traverse City", "zip": "49686", "dst": 1, "geopoint": [44.735559, -85.54511], "longitude": -85.54511, "state": "MI", "latitude": 44.735559, "timezone": -5}, "geometry": {"type": "Point", "coordinates": [-85.54511, 44.735559]}, "record_timestamp": "2018-02-09T11:33:38.603-05:00"},{"datasetid": "us-zip-code-latitude-and-longitude@public", "recordid": "6d864cdb560d980ace25a5678228fc93938fb4e2", "fields": {"city": "Detroit", "zip": "48223", "dst": 1, "geopoint": [42.394586, -83.24422], "longitude": -83.24422, "state": "MI", "latitude": 42.394586, "timezone": -5}, "geometry": {"type": "Point", "coordinates": [-83.24422, 42.394586]}, "record_timestamp": "2018-02-09T11:33:38.603-05:00"},{"datasetid": "us-zip-code-latitude-and-longitude@public", "recordid": "47cc9909b89ca6581014e3bda561a3453d1de2e0", "fields": {"city": "Hadley", "zip": "48440", "dst": 1, "geopoint": [42.952899, -83.40536], "longitude": -83.40536, "state": "MI", "latitude": 42.952899, "timezone": -5}, "geometry": {"type": "Point", "coordinates": [-83.40536, 42.952899]}, "record_timestamp": "2018-02-09T11:33:38.603-05:00"},{"datasetid": "us-zip-code-latitude-and-longitude@public", "recordid": "8bb57281019ba308654f7c4335d5d848cf763d8d", "fields": {"city": "Davison", "zip": "48423", "dst": 1, "geopoint": [43.029526, -83.5218], "longitude": -83.5218, "state": "MI", "latitude": 43.029526, "timezone": -5}, "geometry": {"type": "Point", "coordinates": [-83.5218, 43.029526]}, "record_timestamp": "2018-02-09T11:33:38.603-05:00"},{"datasetid": "us-zip-code-latitude-and-longitude@public", "recordid": "9c348d017f03d2c47dddcdbefed3f64ebfb54d7d", "fields": {"city": "Kalamazoo", "zip": "49001", "dst": 1, "geopoint": [42.278891, -85.55107], "longitude": -85.55107, "state": "MI", "latitude": 42.278891, "timezone": -5}, "geometry": {"type": "Point", "coordinates": [-85.55107, 42.278891]}, "record_timestamp": "2018-02-09T11:33:38.603-05:00"},{"datasetid": "us-zip-code-latitude-and-longitude@public", "recordid": "d4918645ce466d9d497eec94d82f10a726ba699d", "fields": {"city": "Garden City", "zip": "48135", "dst": 1, "geopoint": [42.324338, -83.3382], "longitude": -83.3382, "state": "MI", "latitude": 42.324338, "timezone": -5}, "geometry": {"type": "Point", "coordinates": [-83.3382, 42.324338]}, "record_timestamp": "2018-02-09T11:33:38.603-05:00"},{"datasetid": "us-zip-code-latitude-and-longitude@public", "recordid": "f647c7fee08b92c2ad2e32e79f53f51fc483dc68", "fields": {"city": "Detroit", "zip": "48265", "dst": 1, "geopoint": [42.239933, -83.150823], "longitude": -83.150823, "state": "MI", "latitude": 42.239933, "timezone": -5}, "geometry": {"type": "Point", "coordinates": [-83.150823, 42.239933]}, "record_timestamp": "2018-02-09T11:33:38.603-05:00"},{"datasetid": "us-zip-code-latitude-and-longitude@public", "recordid": "daf5ad87142d79913571e3a9150b1e1844c4a98c", "fields": {"city": "Dickson", "zip": "49169", "dst": 1, "geopoint": [44.30476, -86.015026], "longitude": -86.015026, "state": "MI", "latitude": 44.30476, "timezone": -5}, "geometry": {"type": "Point", "coordinates": [-86.015026, 44.30476]}, "record_timestamp": "2018-02-09T11:33:38.603-05:00"},{"datasetid": "us-zip-code-latitude-and-longitude@public", "recordid": "6ff72f91d2777e1a28a587b3b1f604a7b32846d3", "fields": {"city": "Jerome", "zip": "49249", "dst": 1, "geopoint": [42.048979, -84.4396], "longitude": -84.4396, "state": "MI", "latitude": 42.048979, "timezone": -5}, "geometry": {"type": "Point", "coordinates": [-84.4396, 42.048979]}, "record_timestamp": "2018-02-09T11:33:38.603-05:00"},{"datasetid": "us-zip-code-latitude-and-longitude@public", "recordid": "a2d3558137af90ba029cdccf6ea8afab9d306ccc", "fields": {"city": "Burton", "zip": "48519", "dst": 1, "geopoint": [42.984777, -83.61155], "longitude": -83.61155, "state": "MI", "latitude": 42.984777, "timezone": -5}, "geometry": {"type": "Point", "coordinates": [-83.61155, 42.984777]}, "record_timestamp": "2018-02-09T11:33:38.603-05:00"},{"datasetid": "us-zip-code-latitude-and-longitude@public", "recordid": "4b9a0496c711f5f4642312e15047f0616fb2ae2d", "fields": {"city": "Coral", "zip": "49322", "dst": 1, "geopoint": [43.368957, -85.37282], "longitude": -85.37282, "state": "MI", "latitude": 43.368957, "timezone": -5}, "geometry": {"type": "Point", "coordinates": [-85.37282, 43.368957]}, "record_timestamp": "2018-02-09T11:33:38.603-05:00"},{"datasetid": "us-zip-code-latitude-and-longitude@public", "recordid": "965e02edacbc0e901745778800040ff4df5657f0", "fields": {"city": "Allendale", "zip": "49401", "dst": 1, "geopoint": [42.973667, -85.9318], "longitude": -85.9318, "state": "MI", "latitude": 42.973667, "timezone": -5}, "geometry": {"type": "Point", "coordinates": [-85.9318, 42.973667]}, "record_timestamp": "2018-02-09T11:33:38.603-05:00"},{"datasetid": "us-zip-code-latitude-and-longitude@public", "recordid": "4dd9366c234218d592408e36cf967ef13b0c1edf", "fields": {"city": "Brooklyn", "zip": "49230", "dst": 1, "geopoint": [42.089891, -84.22768], "longitude": -84.22768, "state": "MI", "latitude": 42.089891, "timezone": -5}, "geometry": {"type": "Point", "coordinates": [-84.22768, 42.089891]}, "record_timestamp": "2018-02-09T11:33:38.603-05:00"},{"datasetid": "us-zip-code-latitude-and-longitude@public", "recordid": "4351c48930745c892ef0bfcb001d4afbb3c9e371", "fields": {"city": "Whittaker", "zip": "48190", "dst": 1, "geopoint": [42.134658, -83.59684], "longitude": -83.59684, "state": "MI", "latitude": 42.134658, "timezone": -5}, "geometry": {"type": "Point", "coordinates": [-83.59684, 42.134658]}, "record_timestamp": "2018-02-09T11:33:38.603-05:00"},{"datasetid": "us-zip-code-latitude-and-longitude@public", "recordid": "dc96f40127197b7f9ee6648b4cfb3b0dd8a9778f", "fields": {"city": "Flint", "zip": "48501", "dst": 1, "geopoint": [42.965926, -83.780835], "longitude": -83.780835, "state": "MI", "latitude": 42.965926, "timezone": -5}, "geometry": {"type": "Point", "coordinates": [-83.780835, 42.965926]}, "record_timestamp": "2018-02-09T11:33:38.603-05:00"},{"datasetid": "us-zip-code-latitude-and-longitude@public", "recordid": "4c90c08bcfc9d5538bea95c14729748183bcc74d", "fields": {"city": "De Tour Village", "zip": "49725", "dst": 1, "geopoint": [45.992931, -83.98087], "longitude": -83.98087, "state": "MI", "latitude": 45.992931, "timezone": -5}, "geometry": {"type": "Point", "coordinates": [-83.98087, 45.992931]}, "record_timestamp": "2018-02-09T11:33:38.603-05:00"},{"datasetid": "us-zip-code-latitude-and-longitude@public", "recordid": "a1dabf7df79e5d48a050d30f1f39f76bdb6a7fee", "fields": {"city": "Pointe Aux Pins", "zip": "49775", "dst": 1, "geopoint": [45.758378, -84.46507], "longitude": -84.46507, "state": "MI", "latitude": 45.758378, "timezone": -5}, "geometry": {"type": "Point", "coordinates": [-84.46507, 45.758378]}, "record_timestamp": "2018-02-09T11:33:38.603-05:00"},{"datasetid": "us-zip-code-latitude-and-longitude@public", "recordid": "7f6399e6101973bf3636f54b939537dc366a3375", "fields": {"city": "Herron", "zip": "49744", "dst": 1, "geopoint": [44.993111, -83.65723], "longitude": -83.65723, "state": "MI", "latitude": 44.993111, "timezone": -5}, "geometry": {"type": "Point", "coordinates": [-83.65723, 44.993111]}, "record_timestamp": "2018-02-09T11:33:38.603-05:00"},{"datasetid": "us-zip-code-latitude-and-longitude@public", "recordid": "70e133fbd60c5929f552367aa7238e8db3a5cb15", "fields": {"city": "Independence", "zip": "48246", "dst": 1, "geopoint": [42.712944, -83.348152], "longitude": -83.348152, "state": "MI", "latitude": 42.712944, "timezone": -5}, "geometry": {"type": "Point", "coordinates": [-83.348152, 42.712944]}, "record_timestamp": "2018-02-09T11:33:38.603-05:00"},{"datasetid": "us-zip-code-latitude-and-longitude@public", "recordid": "dd4d836441d36d7ad8f7bfbd7f16d2d1d9cf3338", "fields": {"city": "Hagar Shores", "zip": "49039", "dst": 1, "geopoint": [42.224757, -86.372276], "longitude": -86.372276, "state": "MI", "latitude": 42.224757, "timezone": -5}, "geometry": {"type": "Point", "coordinates": [-86.372276, 42.224757]}, "record_timestamp": "2018-02-09T11:33:38.603-05:00"},